Country,Air Quality Network,Air Quality Network Name,Air Quality Station EoI Code,Air Quality Station Name,Sampling Point Id,Air Pollutant,Air Pollutant Description,Data Aggregation Process Id,Data Aggregation Process,Year,Air Pollution Level,Unit Of Air Pollution Level,Data Coverage,Verification,Air Quality Station Type,Air Quality Station Area,Longitude,Latitude,Altitude,City,City Code,City Population,Source Of Data Flow,Calculation Time,Link to raw data (only E1a/validated data from AQ e-Reporting),Observation Frequency
Belgium,NET-Flanders,Flanders,BETR740,44R740 - ST.KRUIS-WI,SPO-BETR740_06001_100,PM2.5,Particulate matter < 2.5 µm (aerosol),P1Y,Annual mean / 1 calendar year,2019,14.07,ug/m3,97.53,1,Industrial,Rural,3.8087,51.1501,5,Gent                                                                            ,BE003C1                                           ,263687,E1a/validated data AQ e-Reporting,02/11/2024 21:46,https://eeadmz1batchservice02.blob.core.windows.net/airquality-p-e1a/BE/SPO-BETR740_06001_100.parquet,hour
Belgium,NET-Flanders,Flanders,BETR831,42R831 - BERENDRECHT,SPO-BETR831_06001_100,PM2.5,Particulate matter < 2.5 µm (aerosol),P1Y,Annual mean / 1 calendar year,2019,12.365,ug/m3,99.76,1,Industrial,Rural,4.3397,51.3488,3,Antwerpen                                                                       ,BE002C1                                           ,530014,E1a/validated data AQ e-Reporting,02/11/2024 21:46,https://eeadmz1batchservice02.blob.core.windows.net/airquality-p-e1a/BE/SPO-BETR831_06001_100.parquet,hour
France,NET-FR004A,AIRPARIF,FR04066,Zone rurale Sud,SPO-FR04066_6001,PM2.5,Particulate matter < 2.5 µm (aerosol),P1Y,Annual mean / 1 calendar year,2019,7.782,ug/m3,93.79,1,Background,Rural,2.2369,48.3642,134,,,,E1a/validated data AQ e-Reporting,02/11/2024 21:46,https://eeadmz1batchservice02.blob.core.windows.net/airquality-p-e1a/FR/SPO-FR04066_6001.parquet,hour
Finland,NET-FI004A,Helsingin seudun verkko (HSY),FI00208,Luukki,SPO-FI00208_06001_100,PM2.5,Particulate matter < 2.5 µm (aerosol),P1Y,Annual mean / 1 calendar year,2019,5.105,ug/m3,98.31,1,Background,Rural,24.6849,60.3144,55,Helsinki / Helsingfors (greater city)                                           ,FI001K2                                           ,1154967,E1a/validated data AQ e-Reporting,02/11/2024 21:46,https://eeadmz1batchservice02.blob.core.windows.net/airquality-p-e1a/FI/SPO-FI00208_06001_100.parquet,hour
France,NET-FR004A,AIRPARIF,FR04048,Zone Rurale Nord,SPO-FR04048_6001,PM2.5,Particulate matter < 2.5 µm (aerosol),P1Y,Annual mean / 1 calendar year,2019,8.727,ug/m3,97.59,1,Background,Rural,2.3439,49.1003,140,,,,E1a/validated data AQ e-Reporting,02/11/2024 21:46,https://eeadmz1batchservice02.blob.core.windows.net/airquality-p-e1a/FR/SPO-FR04048_6001.parquet,hour
France,NET-FR058A,ATMO NOUVELLE-AQUITAINE,FR31033,PERIGUEUX,SPO-FR31033_6001,PM2.5,Particulate matter < 2.5 µm (aerosol),P1Y,Annual mean / 1 calendar year,2019,6.689,ug/m3,96.4,1,Background,Urban,0.7272,45.1898,142,,,,E1a/validated data AQ e-Reporting,02/11/2024 21:46,https://eeadmz1batchservice02.blob.core.windows.net/airquality-p-e1a/FR/SPO-FR31033_6001.parquet,hour
France,NET-FR035A,AIR PAYS DE LA LOIRE,FR23177,SAINT-DENIS D'ANJOU,SPO-FR23177_6001,PM2.5,Particulate matter < 2.5 µm (aerosol),P1Y,Annual mean / 1 calendar year,2019,9.307,ug/m3,94.1,1,Background,Rural,-0.444,47.7877,54,,,,E1a/validated data AQ e-Reporting,02/11/2024 21:46,https://eeadmz1batchservice02.blob.core.windows.net/airquality-p-e1a/FR/SPO-FR23177_6001.parquet,hour
France,NET-FR004A,AIRPARIF,FR04058,Auto A1 -Saint-Denis,SPO-FR04058_6001,PM2.5,Particulate matter < 2.5 µm (aerosol),P1Y,Annual mean / 1 calendar year,2019,16.2,ug/m3,97.97,1,Traffic,Urban,2.3567,48.9253,35,Paris (greater city)                                                            ,FR001C1                                           ,9845879,E1a/validated data AQ e-Reporting,02/11/2024 21:46,https://eeadmz1batchservice02.blob.core.windows.net/airquality-p-e1a/FR/SPO-FR04058_6001.parquet,hour
France,NET-FR004A,AIRPARIF,FR04002,GENNEVILLIERS,SPO-FR04002_6001,PM2.5,Particulate matter < 2.5 µm (aerosol),P1Y,Annual mean / 1 calendar year,2019,12.088,ug/m3,92.02,1,Background,Urban,2.2944,48.9303,28,Paris (greater city)                                                            ,FR001C1                                           ,9845879,E1a/validated data AQ e-Reporting,02/11/2024 21:46,https://eeadmz1batchservice02.blob.core.windows.net/airquality-p-e1a/FR/SPO-FR04002_6001.parquet,hour
France,NET-FR035A,AIR PAYS DE LA LOIRE,FR23182,SOURCES,SPO-FR23182_6001,PM2.5,Particulate matter < 2.5 µm (aerosol),P1Y,Annual mean / 1 calendar year,2019,9.29,ug/m3,97.83,1,Background,Urban,0.2214,47.9711,50,Le Mans                                                                         ,FR038C2                                           ,150369,E1a/validated data AQ e-Reporting,02/11/2024 21:46,https://eeadmz1batchservice02.blob.core.windows.net/airquality-p-e1a/FR/SPO-FR23182_6001.parquet,hour
France,NET-FR004A,AIRPARIF,FR04034,VITRY-SUR-SEINE,SPO-FR04034_6001,PM2.5,Particulate matter < 2.5 µm (aerosol),P1Y,Annual mean / 1 calendar year,2019,10.797,ug/m3,94.99,1,Background,Urban,2.3758,48.7759,95,Paris (greater city)                                                            ,FR001C1                                           ,9845879,E1a/validated data AQ e-Reporting,02/11/2024 21:46,https://eeadmz1batchservice02.blob.core.windows.net/airquality-p-e1a/FR/SPO-FR04034_6001.parquet,hour
France,NET-FR058A,ATMO NOUVELLE-AQUITAINE,FR31002,TALENCE,SPO-FR31002_6001,PM2.5,Particulate matter < 2.5 µm (aerosol),P1Y,Annual mean / 1 calendar year,2019,9.812,ug/m3,94.91,1,Background,Urban,-0.5894,44.8005,20,Bordeaux                                                                        ,FR007C1                                           ,650138,E1a/validated data AQ e-Reporting,02/11/2024 21:46,https://eeadmz1batchservice02.blob.core.windows.net/airquality-p-e1a/FR/SPO-FR31002_6001.parquet,hour
France,NET-FR035A,AIR PAYS DE LA LOIRE,FR23110,LEON BLUM,SPO-FR23110_6001,PM2.5,Particulate matter < 2.5 µm (aerosol),P1Y,Annual mean / 1 calendar year,2019,8.236,ug/m3,96.21,1,Background,Urban,-2.2499,47.2641,10,Saint-Nazaire                                                                   ,FR052C2                                           ,69993,E1a/validated data AQ e-Reporting,02/11/2024 21:46,https://eeadmz1batchservice02.blob.core.windows.net/airquality-p-e1a/FR/SPO-FR23110_6001.parquet,hour
France,NET-FR004A,AIRPARIF,FR04156,BOBIGNY,SPO-FR04156_6001,PM2.5,Particulate matter < 2.5 µm (aerosol),P1Y,Annual mean / 1 calendar year,2019,10.206,ug/m3,94.1,1,Background,Urban,2.4525,48.9025,51,Paris (greater city)                                                            ,FR001C1                                           ,9845879,E1a/validated data AQ e-Reporting,02/11/2024 21:46,https://eeadmz1batchservice02.blob.core.windows.net/airquality-p-e1a/FR/SPO-FR04156_6001.parquet,hour
Austria,NET.02,Amt der Kärntner Landesregierung,AT2KA71,Klagenfurt Sterneckstraße,SPO.02.KA71.64585.6001.1,PM2.5,Particulate matter < 2.5 µm (aerosol),P1Y,Annual mean / 1 calendar year,2019,8.494,ug/m3,99.89,1,Background,Urban,14.2991,46.6266,445,Klagenfurt                                                                      ,AT006C1                                           ,96640,E1a/validated data AQ e-Reporting,02/11/2024 21:46,https://eeadmz1batchservice02.blob.core.windows.net/airquality-p-e1a/AT/SPO.02.KA71.64585.6001.1.parquet,hour
Austria,NET.02,Amt der Kärntner Landesregierung,AT2KA21,Klagenfurt Völkermarkter Straße,SPO.02.KA21.64523.6001.1,PM2.5,Particulate matter < 2.5 µm (aerosol),P1Y,Annual mean / 1 calendar year,2019,11.49,ug/m3,97.71,1,Traffic,Urban,14.3181,46.6256,445,Klagenfurt                                                                      ,AT006C1                                           ,96640,E1a/validated data AQ e-Reporting,02/11/2024 21:46,https://eeadmz1batchservice02.blob.core.windows.net/airquality-p-e1a/AT/SPO.02.KA21.64523.6001.1.parquet,hour
Austria,NET.04,Amt der Oberösterreichischen Landesregierung,AT4S431,Linz Römerberg B139,SPO.04.S431.64526.6001.1,PM2.5,Particulate matter < 2.5 µm (aerosol),P1Y,Annual mean / 1 calendar year,2019,15.045,ug/m3,99.67,1,Traffic,Urban,14.2822,48.303,262,Linz                                                                            ,AT003C1                                           ,193814,E1a/validated data AQ e-Reporting,02/11/2024 21:46,https://eeadmz1batchservice02.blob.core.windows.net/airquality-p-e1a/AT/SPO.04.S431.64526.6001.1.parquet,hour
Austria,NET.09,Gemeinde Wien - MA22 Umweltschutz,AT9BELG,Belgradplatz,SPO.09.BELG.67350.6001.1,PM2.5,Particulate matter < 2.5 µm (aerosol),P1Y,Annual mean / 1 calendar year,2019,12.817,ug/m3,99.94,1,Background,Urban,16.3614,48.1744,218,Wien                                                                            ,AT001C1                                           ,1766746,E1a/validated data AQ e-Reporting,02/11/2024 21:46,https://eeadmz1batchservice02.blob.core.windows.net/airquality-p-e1a/AT/SPO.09.BELG.67350.6001.1.parquet,hour
Austria,NET.09,Gemeinde Wien - MA22 Umweltschutz,AT9KEND,Kendlerstraße,SPO.09.KEND.64567.6001.1,PM2.5,Particulate matter < 2.5 µm (aerosol),P1Y,Annual mean / 1 calendar year,2019,13.069,ug/m3,99.95,1,Background,Urban,16.3098,48.205,236,Wien                                                                            ,AT001C1                                           ,1766746,E1a/validated data AQ e-Reporting,02/11/2024 21:46,https://eeadmz1batchservice02.blob.core.windows.net/airquality-p-e1a/AT/SPO.09.KEND.64567.6001.1.parquet,hour
Austria,NET.09,Gemeinde Wien - MA22 Umweltschutz,AT9GAUD,Gaudenzdorf,SPO.09.GAUD.67352.6001.1,PM2.5,Particulate matter < 2.5 µm (aerosol),P1Y,Annual mean / 1 calendar year,2019,12.163,ug/m3,99.93,1,Background,Urban,16.3393,48.1871,179,Wien                                                                            ,AT001C1                                           ,1766746,E1a/validated data AQ e-Reporting,02/11/2024 21:46,https://eeadmz1batchservice02.blob.core.windows.net/airquality-p-e1a/AT/SPO.09.GAUD.67352.6001.1.parquet,hour
Austria,NET.04,Amt der Oberösterreichischen Landesregierung,AT4S416,Linz Neue Welt,SPO.04.S416.64344.6001.1,PM2.5,Particulate matter < 2.5 µm (aerosol),P1Y,Annual mean / 1 calendar year,2019,13.167,ug/m3,99.5,1,Industrial,Suburban,14.3148,48.2733,265,Linz                                                                            ,AT003C1                                           ,193814,E1a/validated data AQ e-Reporting,02/11/2024 21:46,https://eeadmz1batchservice02.blob.core.windows.net/airquality-p-e1a/AT/SPO.04.S416.64344.6001.1.parquet,hour
Austria,NET.09,Gemeinde Wien - MA22 Umweltschutz,AT900KE,Kaiser-Ebersdorf,SPO.09.KE.66730.6001.1,PM2.5,Particulate matter < 2.5 µm (aerosol),P1Y,Annual mean / 1 calendar year,2019,12.717,ug/m3,99.19,1,Background,Suburban,16.4761,48.1567,158,Wien                                                                            ,AT001C1                                           ,1766746,E1a/validated data AQ e-Reporting,02/11/2024 21:46,https://eeadmz1batchservice02.blob.core.windows.net/airquality-p-e1a/AT/SPO.09.KE.66730.6001.1.parquet,hour
Austria,NET.09,Gemeinde Wien - MA22 Umweltschutz,AT9LIES,Liesing - Carlberger-Gasse Gewerbegebiet,SPO.09.LIES.67354.6001.1,PM2.5,Particulate matter < 2.5 µm (aerosol),P1Y,Annual mean / 1 calendar year,2019,11.399,ug/m3,99.78,1,Background,Suburban,16.3001,48.1412,211,Wien                                                                            ,AT001C1                                           ,1766746,E1a/validated data AQ e-Reporting,02/11/2024 21:46,https://eeadmz1batchservice02.blob.core.windows.net/airquality-p-e1a/AT/SPO.09.LIES.67354.6001.1.parquet,hour
Austria,NET.09,Gemeinde Wien - MA22 Umweltschutz,AT90LAA,Laaer Berg,SPO.09.LAA.67353.6001.1,PM2.5,Particulate matter < 2.5 µm (aerosol),P1Y,Annual mean / 1 calendar year,2019,12.367,ug/m3,85.23,1,Background,Suburban,16.3929,48.161,251,Wien                                                                            ,AT001C1                                           ,1766746,E1a/validated data AQ e-Reporting,02/11/2024 21:46,https://eeadmz1batchservice02.blob.core.windows.net/airquality-p-e1a/AT/SPO.09.LAA.67353.6001.1.parquet,hour
Austria,NET.09,Gemeinde Wien - MA22 Umweltschutz,AT90LOB,Lobau,SPO.09.LOB.64566.6001.1,PM2.5,Particulate matter < 2.5 µm (aerosol),P1Y,Annual mean / 1 calendar year,2019,10.93,ug/m3,99.89,1,Background,Suburban,16.5256,48.1621,155,Wien                                                                            ,AT001C1                                           ,1766746,E1a/validated data AQ e-Reporting,02/11/2024 21:46,https://eeadmz1batchservice02.blob.core.windows.net/airquality-p-e1a/AT/SPO.09.LOB.64566.6001.1.parquet,hour
Austria,NET.09,Gemeinde Wien - MA22 Umweltschutz,AT9SCHA,Schafberg,SPO.09.SCHA.66729.6001.1,PM2.5,Particulate matter < 2.5 µm (aerosol),P1Y,Annual mean / 1 calendar year,2019,11.654,ug/m3,96.89,1,Background,Suburban,16.3016,48.2354,319,Wien                                                                            ,AT001C1                                           ,1766746,E1a/validated data AQ e-Reporting,02/11/2024 21:46,https://eeadmz1batchservice02.blob.core.windows.net/airquality-p-e1a/AT/SPO.09.SCHA.66729.6001.1.parquet,hour
France,NET-FR004A,AIRPARIF,FR04181,RAMBOUILLET,SPO-FR04181_6001,PM2.5,Particulate matter < 2.5 µm (aerosol),P1Y,Annual mean / 1 calendar year,2019,8.319,ug/m3,94.21,1,Background,Suburban,1.8305,48.6337,164,,,,E1a/validated data AQ e-Reporting,02/11/2024 21:46,https://eeadmz1batchservice02.blob.core.windows.net/airquality-p-e1a/FR/SPO-FR04181_6001.parquet,hour
France,NET-FR004A,AIRPARIF,FR04328,Zone Rurale SE,SPO-FR04328_6001,PM2.5,Particulate matter < 2.5 µm (aerosol),P1Y,Annual mean / 1 calendar year,2019,6.884,ug/m3,98.57,1,Background,Rural,2.6453,48.3547,127,,,,E1a/validated data AQ e-Reporting,02/11/2024 21:46,https://eeadmz1batchservice02.blob.core.windows.net/airquality-p-e1a/FR/SPO-FR04328_6001.parquet,hour
France,NET-FR035A,AIR PAYS DE LA LOIRE,FR23124,LA TARDIERE,SPO-FR23124_6001,PM2.5,Particulate matter < 2.5 µm (aerosol),P1Y,Annual mean / 1 calendar year,2019,7.623,ug/m3,95.83,1,Background,Rural,-0.7437,46.6567,100,,,,E1a/validated data AQ e-Reporting,02/11/2024 21:46,https://eeadmz1batchservice02.blob.core.windows.net/airquality-p-e1a/FR/SPO-FR23124_6001.parquet,hour
France,NET-FR058A,ATMO NOUVELLE-AQUITAINE,FR09019,Niort Ferry,SPO-FR09019_6001,PM2.5,Particulate matter < 2.5 µm (aerosol),P1Y,Annual mean / 1 calendar year,2019,8.855,ug/m3,95.67,1,Background,Urban,-0.4589,46.3296,48,,,,E1a/validated data AQ e-Reporting,02/11/2024 21:46,https://eeadmz1batchservice02.blob.core.windows.net/airquality-p-e1a/FR/SPO-FR09019_6001.parquet,hour
France,NET-FR058A,ATMO NOUVELLE-AQUITAINE,FR31007,BASSENS,SPO-FR31007_6001,PM2.5,Particulate matter < 2.5 µm (aerosol),P1Y,Annual mean / 1 calendar year,2019,9.26,ug/m3,94.39,1,Background,Urban,-0.5158,44.9003,36,,,,E1a/validated data AQ e-Reporting,02/11/2024 21:46,https://eeadmz1batchservice02.blob.core.windows.net/airquality-p-e1a/FR/SPO-FR31007_6001.parquet,hour
France,NET-FR058A,ATMO NOUVELLE-AQUITAINE,FR09103,Square Pablo Casals,SPO-FR09103_6001,PM2.5,Particulate matter < 2.5 µm (aerosol),P1Y,Annual mean / 1 calendar year,2019,9.151,ug/m3,95.27,1,Background,Urban,0.1672,45.6474,83,,,,E1a/validated data AQ e-Reporting,02/11/2024 21:46,https://eeadmz1batchservice02.blob.core.windows.net/airquality-p-e1a/FR/SPO-FR09103_6001.parquet,hour
France,NET-FR058A,ATMO NOUVELLE-AQUITAINE,FR31036,DAX,SPO-FR31036_6001,PM2.5,Particulate matter < 2.5 µm (aerosol),P1Y,Annual mean / 1 calendar year,2019,8.709,ug/m3,95.84,1,Background,Urban,-1.0386,43.7046,14,,,,E1a/validated data AQ e-Reporting,02/11/2024 21:46,https://eeadmz1batchservice02.blob.core.windows.net/airquality-p-e1a/FR/SPO-FR31036_6001.parquet,hour
France,NET-FR068A,ATMO OCCITANIE,FR08020,Lunel Viel,SPO-FR08020_6001,PM2.5,Particulate matter < 2.5 µm (aerosol),P1Y,Annual mean / 1 calendar year,2019,8.377,ug/m3,94.49,1,Industrial,Suburban,4.0884,43.6758,15,,,,E1a/validated data AQ e-Reporting,02/11/2024 21:46,https://eeadmz1batchservice02.blob.core.windows.net/airquality-p-e1a/FR/SPO-FR08020_6001.parquet,hour
Austria,NET.03,Amt der Niederösterreichischen Landesregierung,AT32701,"Schwechat Sportplatz, Mühlgasse",SPO.03.2701.64380.6001.1,PM2.5,Particulate matter < 2.5 µm (aerosol),P1Y,Annual mean / 1 calendar year,2019,12.777,ug/m3,99.7,1,Background,Suburban,16.4759,48.1456,155,,,,E1a/validated data AQ e-Reporting,02/11/2024 21:46,https://eeadmz1batchservice02.blob.core.windows.net/airquality-p-e1a/AT/SPO.03.2701.64380.6001.1.parquet,hour
Austria,NET.04,Amt der Oberösterreichischen Landesregierung,AT4S156,"Braunau Zentrum, Kolpingplatz",SPO.04.S156.65711.6001.1,PM2.5,Particulate matter < 2.5 µm (aerosol),P1Y,Annual mean / 1 calendar year,2019,12.484,ug/m3,99.04,1,Background,Suburban,13.0392,48.2575,350,,,,E1a/validated data AQ e-Reporting,02/11/2024 21:46,https://eeadmz1batchservice02.blob.core.windows.net/airquality-p-e1a/AT/SPO.04.S156.65711.6001.1.parquet,hour
Austria,NET.02,Amt der Kärntner Landesregierung,AT2WO15,Wolfsberg Hauptschule,SPO.02.WO15.64586.6001.1,PM2.5,Particulate matter < 2.5 µm (aerosol),P1Y,Annual mean / 1 calendar year,2019,12.834,ug/m3,99.92,1,Background,Suburban,14.8435,46.835,460,,,,E1a/validated data AQ e-Reporting,02/11/2024 21:46,https://eeadmz1batchservice02.blob.core.windows.net/airquality-p-e1a/AT/SPO.02.WO15.64586.6001.1.parquet,hour
Austria,NET.04,Amt der Oberösterreichischen Landesregierung,AT4S108,Grünbach bei Freistadt,SPO.04.S108.64343.6001.1,PM2.5,Particulate matter < 2.5 µm (aerosol),P1Y,Annual mean / 1 calendar year,2019,7.249,ug/m3,81.38,1,Background,Rural,14.5747,48.5311,918,,,,E1a/validated data AQ e-Reporting,02/11/2024 21:46,https://eeadmz1batchservice02.blob.core.windows.net/airquality-p-e1a/AT/SPO.04.S108.64343.6001.1.parquet,hour
Austria,NET.03,Amt der Niederösterreichischen Landesregierung,AT30104,"St. Valentin A1, Buchenstraße",SPO.03.0104.65867.6001.1,PM2.5,Particulate matter < 2.5 µm (aerosol),P1Y,Annual mean / 1 calendar year,2019,12.569,ug/m3,98.2,1,Background,Rural,14.5195,48.1923,265,,,,E1a/validated data AQ e-Reporting,02/11/2024 21:46,https://eeadmz1batchservice02.blob.core.windows.net/airquality-p-e1a/AT/SPO.03.0104.65867.6001.1.parquet,hour
Austria,NET.03,Amt der Niederösterreichischen Landesregierung,AT32301,St. Pölten Eybnerstraße,SPO.03.2301.65506.6001.1,PM2.5,Particulate matter < 2.5 µm (aerosol),P1Y,Annual mean / 1 calendar year,2019,12.653,ug/m3,99.97,1,Background,Suburban,15.6325,48.2116,270,,,,E1a/validated data AQ e-Reporting,02/11/2024 21:46,https://eeadmz1batchservice02.blob.core.windows.net/airquality-p-e1a/AT/SPO.03.2301.65506.6001.1.parquet,hour
Austria,NET.03,Amt der Niederösterreichischen Landesregierung,AT31902,Zwentendorf im Tullnerfeld,SPO.03.1902.65868.6001.1,PM2.5,Particulate matter < 2.5 µm (aerosol),P1Y,Annual mean / 1 calendar year,2019,9.533,ug/m3,99.87,1,Background,Rural,15.9071,48.3451,200,,,,E1a/validated data AQ e-Reporting,02/11/2024 21:46,https://eeadmz1batchservice02.blob.core.windows.net/airquality-p-e1a/AT/SPO.03.1902.65868.6001.1.parquet,hour
France,NET-FR035A,AIR PAYS DE LA LOIRE,FR23120,BEAUX ARTS,SPO-FR23120_6001,PM2.5,Particulate matter < 2.5 µm (aerosol),P1Y,Annual mean / 1 calendar year,2019,9.47,ug/m3,98.88,1,Background,Urban,-0.5561,47.4685,30,Angers                                                                          ,FR036C2                                           ,180297,E1a/validated data AQ e-Reporting,02/11/2024 21:46,https://eeadmz1batchservice02.blob.core.windows.net/airquality-p-e1a/FR/SPO-FR23120_6001.parquet,hour
France,NET-FR004A,AIRPARIF,FR04329,Bld peripherique Est,SPO-FR04329_6001,PM2.5,Particulate matter < 2.5 µm (aerosol),P1Y,Annual mean / 1 calendar year,2019,15.514,ug/m3,98.12,1,Traffic,Urban,2.4128,48.8386,49,Paris (greater city)                                                            ,FR001C1                                           ,9845879,E1a/validated data AQ e-Reporting,02/11/2024 21:46,https://eeadmz1batchservice02.blob.core.windows.net/airquality-p-e1a/FR/SPO-FR04329_6001.parquet,hour
France,NET-FR058A,ATMO NOUVELLE-AQUITAINE,FR09003,place de VERDUN,SPO-FR09003_6001,PM2.5,Particulate matter < 2.5 µm (aerosol),P1Y,Annual mean / 1 calendar year,2019,9.083,ug/m3,99.02,1,Background,Urban,-1.1537,46.1626,10,La Rochelle                                                                     ,FR053C1                                           ,82783,E1a/validated data AQ e-Reporting,02/11/2024 21:46,https://eeadmz1batchservice02.blob.core.windows.net/airquality-p-e1a/FR/SPO-FR09003_6001.parquet,hour
France,NET-FR035A,AIR PAYS DE LA LOIRE,FR23140,VICTOR HUGO,SPO-FR23140_6001,PM2.5,Particulate matter < 2.5 µm (aerosol),P1Y,Annual mean / 1 calendar year,2019,10.415,ug/m3,82.26,1,Traffic,Urban,-1.5529,47.2044,20,Nantes                                                                          ,FR008C1                                           ,450218,E1a/validated data AQ e-Reporting,02/11/2024 21:46,https://eeadmz1batchservice02.blob.core.windows.net/airquality-p-e1a/FR/SPO-FR23140_6001.parquet,hour
France,NET-FR035A,AIR PAYS DE LA LOIRE,FR23188,CIM BOUTEILLERIE,SPO-FR23188_6001,PM2.5,Particulate matter < 2.5 µm (aerosol),P1Y,Annual mean / 1 calendar year,2019,9.796,ug/m3,96.06,1,Background,Urban,-1.5375,47.2225,20,Nantes                                                                          ,FR008C1                                           ,450218,E1a/validated data AQ e-Reporting,02/11/2024 21:46,https://eeadmz1batchservice02.blob.core.windows.net/airquality-p-e1a/FR/SPO-FR23188_6001.parquet,hour
France,NET-FR058A,ATMO NOUVELLE-AQUITAINE,FR09203,La Pallice3 LR,SPO-FR09203_6001,PM2.5,Particulate matter < 2.5 µm (aerosol),P1Y,Annual mean / 1 calendar year,2019,9.079,ug/m3,98.96,1,Industrial,Urban,-1.2112,46.1616,10,La Rochelle                                                                     ,FR053C1                                           ,82783,E1a/validated data AQ e-Reporting,02/11/2024 21:46,https://eeadmz1batchservice02.blob.core.windows.net/airquality-p-e1a/FR/SPO-FR09203_6001.parquet,hour
Greece,NET-GR016A,monitoring network of Athens,GR0003A,ARISTOTELOUS,SPO-GR0003A_06001_100,PM2.5,Particulate matter < 2.5 µm (aerosol),P1Y,Annual mean / 1 calendar year,2019,19.312,ug/m3,92.59,1,Traffic,Urban,23.7276,37.9881,95,Athina                                                                          ,EL001C1                                           ,664046,E1a/validated data AQ e-Reporting,02/11/2024 21:46,https://eeadmz1batchservice02.blob.core.windows.net/airquality-p-e1a/GR/SPO-GR0003A_06001_100.parquet,hour
Greece,NET-GR010A,monitoring network of Patra,GR0048A,PATRA-2,SPO-GR0048A_06001_101,PM2.5,Particulate matter < 2.5 µm (aerosol),P1Y,Annual mean / 1 calendar year,2019,15.574,ug/m3,93.23,1,Traffic,Urban,21.7345,38.2465,19,Pátra                                                                           ,EL003C1                                           ,170896,E1a/validated data AQ e-Reporting,02/11/2024 21:46,https://eeadmz1batchservice02.blob.core.windows.net/airquality-p-e1a/GR/SPO-GR0048A_06001_101.parquet,hour
Italy,NET.IT116A,MONITORAGGIO AMBIENTALE DELLA REGIONE CAMPANIA A CURA DELL'A.R.P.A.C.,IT1486A,CE51 ISTITUTO MANZONI,SPO.IT1486A_6001_BETA_2016-03-09_22:00:00,PM2.5,Particulate matter < 2.5 µm (aerosol),P1Y,Annual mean / 1 calendar year,2019,13.508,ug/m3,86.35,1,Background,Urban,14.3447,41.0844,68,Caserta                                                                         ,IT021C1                                           ,73984,E1a/validated data AQ e-Reporting,02/11/2024 21:46,https://eeadmz1batchservice02.blob.core.windows.net/airquality-p-e1a/IT/SPO.IT1486A_6001_BETA_2016-03-09_22_00_00.parquet,hour
Italy,NET.IT282A,RETE REGIONALE QUALIT? ARIA AMBIENTE,IT2289A,LABORATORIO MOBILE,SPO.IT2289A_6001_BETA_2018-01-01_00:00:00,PM2.5,Particulate matter < 2.5 µm (aerosol),P1Y,Annual mean / 1 calendar year,2019,13.599,ug/m3,91.27,1,Industrial,Urban,13.4923,43.6059,5,Ancona                                                                          ,IT017C1                                           ,99077,E1a/validated data AQ e-Reporting,02/11/2024 21:46,https://eeadmz1batchservice02.blob.core.windows.net/airquality-p-e1a/IT/SPO.IT2289A_6001_BETA_2018-01-01_00_00_00.parquet,hour
Lithuania,NET-LT001A,"""National Air Monitoring Network""",LT00033,"""Klaipeda - Silutes""",SPO-LT00033_06001_100,PM2.5,Particulate matter < 2.5 µm (aerosol),P1Y,Annual mean / 1 calendar year,2019,15.638,ug/m3,89.28,1,Traffic,Urban,21.1795,55.69,12,Klaipeda                                                                        ,LT501C1                                           ,149116,E1a/validated data AQ e-Reporting,02/11/2024 21:46,https://eeadmz1batchservice02.blob.core.windows.net/airquality-p-e1a/LT/SPO-LT00033_06001_100.parquet,hour
Netherlands,NET-NL010A,Landelijk Meetnet Luchtkwaliteit,NL00448,Rotterdam-Bentinckplein,SPO-NL00448_06001_102,PM2.5,Particulate matter < 2.5 µm (aerosol),P1Y,Annual mean / 1 calendar year,2019,11.097,ug/m3,97.31,1,Traffic,Urban,4.4613,51.9271,2,Greater Rotterdam                                                               ,NL003C2                                           ,1232747,E1a/validated data AQ e-Reporting,02/11/2024 21:46,https://eeadmz1batchservice02.blob.core.windows.net/airquality-p-e1a/NL/SPO-NL00448_06001_102.parquet,hour
Belgium,NET-Brussels,Brussels,BETB011,41B011 - BERCHEM S.A,SPO-BETB011_06001_100,PM2.5,Particulate matter < 2.5 µm (aerosol),P1Y,Annual mean / 1 calendar year,2019,12.111,ug/m3,88.84,1,Background,Suburban,4.2887,50.8578,66,Bruxelles / Brussel                                                             ,BE001C1                                           ,1223364,E1a/validated data AQ e-Reporting,02/11/2024 21:46,https://eeadmz1batchservice02.blob.core.windows.net/airquality-p-e1a/BE/SPO-BETB011_06001_100.parquet,hour
Belgium,NET-Brussels,Brussels,BETN043,41N043 - HAREN,SPO-BETN043_06001_100,PM2.5,Particulate matter < 2.5 µm (aerosol),P1Y,Annual mean / 1 calendar year,2019,14.84,ug/m3,89.5,1,Industrial,Suburban,4.383,50.8837,17,Bruxelles / Brussel                                                             ,BE001C1                                           ,1223364,E1a/validated data AQ e-Reporting,02/11/2024 21:46,https://eeadmz1batchservice02.blob.core.windows.net/airquality-p-e1a/BE/SPO-BETN043_06001_100.parquet,hour
Belgium,NET-Brussels,Brussels,BETR012,41R012 - UCCLE,SPO-BETR012_06001_100,PM2.5,Particulate matter < 2.5 µm (aerosol),P1Y,Annual mean / 1 calendar year,2019,9.569,ug/m3,90.55,1,Background,Suburban,4.3586,50.7966,101,Bruxelles / Brussel                                                             ,BE001C1                                           ,1223364,E1a/validated data AQ e-Reporting,02/11/2024 21:46,https://eeadmz1batchservice02.blob.core.windows.net/airquality-p-e1a/BE/SPO-BETR012_06001_100.parquet,hour
Belgium,NET-Flanders,Flanders,BELHB23,40HB23 - HOBOKEN,SPO-BELHB23_06001_100,PM2.5,Particulate matter < 2.5 µm (aerosol),P1Y,Annual mean / 1 calendar year,2019,12.954,ug/m3,99.79,1,Industrial,Suburban,4.341,51.1703,13,Antwerpen                                                                       ,BE002C1                                           ,530014,E1a/validated data AQ e-Reporting,02/11/2024 21:46,https://eeadmz1batchservice02.blob.core.windows.net/airquality-p-e1a/BE/SPO-BELHB23_06001_100.parquet,hour
Belgium,NET-Flanders,Flanders,BELAL01,40AL01 - ANTWERPEN            ,SPO-BELAL01_06001_100,PM2.5,Particulate matter < 2.5 µm (aerosol),P1Y,Annual mean / 1 calendar year,2019,12.637,ug/m3,98.76,1,Industrial,Suburban,4.3852,51.2362,0,Antwerpen                                                                       ,BE002C1                                           ,530014,E1a/validated data AQ e-Reporting,02/11/2024 21:46,https://eeadmz1batchservice02.blob.core.windows.net/airquality-p-e1a/BE/SPO-BELAL01_06001_100.parquet,hour
Belgium,NET-Flanders,Flanders,BETM802,42M802 - ANTWERPEN,SPO-BETM802_06001_100,PM2.5,Particulate matter < 2.5 µm (aerosol),P1Y,Annual mean / 1 calendar year,2019,12.231,ug/m3,99.82,1,Industrial,Suburban,4.4244,51.261,3,Antwerpen                                                                       ,BE002C1                                           ,530014,E1a/validated data AQ e-Reporting,02/11/2024 21:46,https://eeadmz1batchservice02.blob.core.windows.net/airquality-p-e1a/BE/SPO-BETM802_06001_100.parquet,hour
Greece,NET-GR016A,monitoring network of Athens,GR0038A,Elefsina,SPO-GR0038A_06001_100,PM2.5,Particulate matter < 2.5 µm (aerosol),P1Y,Annual mean / 1 calendar year,2019,18.513,ug/m3,78.15,1,Industrial,Suburban,23.5384,38.0513,20,,,,E1a/validated data AQ e-Reporting,02/11/2024 21:46,https://eeadmz1batchservice02.blob.core.windows.net/airquality-p-e1a/GR/SPO-GR0038A_06001_100.parquet,hour
Italy,NET.IT116A,MONITORAGGIO AMBIENTALE DELLA REGIONE CAMPANIA A CURA DELL'A.R.P.A.C.,IT0934A,Via Mustilli,SPO.IT0934A_6001_BETA_2016-10-05_21:00:00,PM2.5,Particulate matter < 2.5 µm (aerosol),P1Y,Annual mean / 1 calendar year,2019,16.442,ug/m3,81.86,1,Traffic,Urban,14.7894,41.1315,159,,,,E1a/validated data AQ e-Reporting,02/11/2024 21:46,https://eeadmz1batchservice02.blob.core.windows.net/airquality-p-e1a/IT/SPO.IT0934A_6001_BETA_2016-10-05_21_00_00.parquet,hour
Norway,NET_NO017A,NO017A,NO0114A,Bekkestua,SPO_NO0114A_6001_2324,PM2.5,Particulate matter < 2.5 µm (aerosol),P1Y,Annual mean / 1 calendar year,2019,8.227,ug/m3,98.01,1,Background,Suburban,10.5839,59.9182,62,,,,E1a/validated data AQ e-Reporting,02/11/2024 21:46,https://eeadmz1batchservice02.blob.core.windows.net/airquality-p-e1a/NO/SPO_NO0114A_6001_2324.parquet,hour
Norway,NET_NO028A,NO028A,NO0113A,Sentrum,SPO_NO0113A_6001_2218,PM2.5,Particulate matter < 2.5 µm (aerosol),P1Y,Annual mean / 1 calendar year,2019,4.695,ug/m3,99.83,1,Traffic,Urban,17.4249,68.4354,100,,,,E1a/validated data AQ e-Reporting,02/11/2024 21:46,https://eeadmz1batchservice02.blob.core.windows.net/airquality-p-e1a/NO/SPO_NO0113A_6001_2218.parquet,hour
Norway,NET_NO011A,NO011A,NO0074A,Bankplassen,SPO_NO0074A_6001_613,PM2.5,Particulate matter < 2.5 µm (aerosol),P1Y,Annual mean / 1 calendar year,2019,6.834,ug/m3,99.2,1,Traffic,Suburban,10.4649,61.1129,180,,,,E1a/validated data AQ e-Reporting,02/11/2024 21:46,https://eeadmz1batchservice02.blob.core.windows.net/airquality-p-e1a/NO/SPO_NO0074A_6001_613.parquet,hour
Norway,NET_NO018A,NO018A,NO0110A,Alvim,SPO_NO0110A_6001_2065,PM2.5,Particulate matter < 2.5 µm (aerosol),P1Y,Annual mean / 1 calendar year,2019,9.964,ug/m3,94.97,1,Traffic,Suburban,11.0892,59.2738,25,,,,E1a/validated data AQ e-Reporting,02/11/2024 21:46,https://eeadmz1batchservice02.blob.core.windows.net/airquality-p-e1a/NO/SPO_NO0110A_6001_2065.parquet,hour
Norway,NET_NO014A,NO014A,NO0084A,St.Croix,SPO_NO0084A_6001_1657,PM2.5,Particulate matter < 2.5 µm (aerosol),P1Y,Annual mean / 1 calendar year,2019,9.535,ug/m3,89.78,1,Traffic,Suburban,10.9453,59.2103,5,,,,E1a/validated data AQ e-Reporting,02/11/2024 21:46,https://eeadmz1batchservice02.blob.core.windows.net/airquality-p-e1a/NO/SPO_NO0084A_6001_1657.parquet,hour
Austria,NET.09,Gemeinde Wien - MA22 Umweltschutz,AT90FLO,Floridsdorf,SPO.09.FLO.67351.6001.1,PM2.5,Particulate matter < 2.5 µm (aerosol),P1Y,Annual mean / 1 calendar year,2019,13.209,ug/m3,94.03,1,Background,Urban,16.397,48.2611,164,Wien                                                                            ,AT001C1                                           ,1766746,E1a/validated data AQ e-Reporting,02/11/2024 21:46,https://eeadmz1batchservice02.blob.core.windows.net/airquality-p-e1a/AT/SPO.09.FLO.67351.6001.1.parquet,hour
Austria,NET.09,Gemeinde Wien - MA22 Umweltschutz,AT9STAD,Stadlau,SPO.09.STAD.64538.6001.1,PM2.5,Particulate matter < 2.5 µm (aerosol),P1Y,Annual mean / 1 calendar year,2019,12.593,ug/m3,99.68,1,Background,Urban,16.4583,48.2264,159,Wien                                                                            ,AT001C1                                           ,1766746,E1a/validated data AQ e-Reporting,02/11/2024 21:46,https://eeadmz1batchservice02.blob.core.windows.net/airquality-p-e1a/AT/SPO.09.STAD.64538.6001.1.parquet,hour
Belgium,NET-Brussels,Brussels,BETR001,41R001 - MOLENBEEK,SPO-BETR001_06001_100,PM2.5,Particulate matter < 2.5 µm (aerosol),P1Y,Annual mean / 1 calendar year,2019,11.597,ug/m3,92.83,1,Background,Urban,4.3341,50.8497,20,Bruxelles / Brussel                                                             ,BE001C1                                           ,1223364,E1a/validated data AQ e-Reporting,02/11/2024 21:46,https://eeadmz1batchservice02.blob.core.windows.net/airquality-p-e1a/BE/SPO-BETR001_06001_100.parquet,hour
Belgium,NET-Flanders,Flanders,BETR702,44R702 - Gent (G.Carlierlaan),SPO-BETR702_06001_100,PM2.5,Particulate matter < 2.5 µm (aerosol),P1Y,Annual mean / 1 calendar year,2019,12.607,ug/m3,99.81,1,Traffic,Urban,3.735,51.0407,8,Gent                                                                            ,BE003C1                                           ,263687,E1a/validated data AQ e-Reporting,02/11/2024 21:46,https://eeadmz1batchservice02.blob.core.windows.net/airquality-p-e1a/BE/SPO-BETR702_06001_100.parquet,hour
Belgium,NET-Flanders,Flanders,BETR805,42R805 - ANTWERPEN,SPO-BETR805_06001_100,PM2.5,Particulate matter < 2.5 µm (aerosol),P1Y,Annual mean / 1 calendar year,2019,13.593,ug/m3,98.52,1,Traffic,Urban,4.4216,51.2082,6,Antwerpen                                                                       ,BE002C1                                           ,530014,E1a/validated data AQ e-Reporting,02/11/2024 21:46,https://eeadmz1batchservice02.blob.core.windows.net/airquality-p-e1a/BE/SPO-BETR805_06001_100.parquet,hour
Belgium,NET-Flanders,Flanders,BETR802,42R802 - BORGERHOUT,SPO-BETR802_06001_100,PM2.5,Particulate matter < 2.5 µm (aerosol),P1Y,Annual mean / 1 calendar year,2019,14.448,ug/m3,98.63,1,Traffic,Urban,4.4318,51.2095,6,Antwerpen                                                                       ,BE002C1                                           ,530014,E1a/validated data AQ e-Reporting,02/11/2024 21:46,https://eeadmz1batchservice02.blob.core.windows.net/airquality-p-e1a/BE/SPO-BETR802_06001_100.parquet,hour
France,NET-FR058A,ATMO NOUVELLE-AQUITAINE,FR09404,Poitiers Centre  Augouard,SPO-FR09404_6001,PM2.5,Particulate matter < 2.5 µm (aerosol),P1Y,Annual mean / 1 calendar year,2019,9.847,ug/m3,96.74,1,Background,Urban,0.3456,46.584,110,Poitiers                                                                        ,FR021C2                                           ,98314,E1a/validated data AQ e-Reporting,02/11/2024 21:46,https://eeadmz1batchservice02.blob.core.windows.net/airquality-p-e1a/FR/SPO-FR09404_6001.parquet,hour
France,NET-FR058A,ATMO NOUVELLE-AQUITAINE,FR31013,BILLERE,SPO-FR31013_6001,PM2.5,Particulate matter < 2.5 µm (aerosol),P1Y,Annual mean / 1 calendar year,2019,6.033,ug/m3,96.42,1,Background,Urban,-0.3915,43.3108,197,Pau                                                                             ,FR045C2                                           ,110402,E1a/validated data AQ e-Reporting,02/11/2024 21:46,https://eeadmz1batchservice02.blob.core.windows.net/airquality-p-e1a/FR/SPO-FR31013_6001.parquet,hour
France,NET-FR061A,LIG'AIR,FR34014,St Jean,SPO-FR34014_6001,PM2.5,Particulate matter < 2.5 µm (aerosol),P1Y,Annual mean / 1 calendar year,2019,10.033,ug/m3,95.81,1,Background,Urban,1.9663,47.9174,110,Orléans                                                                         ,FR019C1                                           ,208564,E1a/validated data AQ e-Reporting,02/11/2024 21:46,https://eeadmz1batchservice02.blob.core.windows.net/airquality-p-e1a/FR/SPO-FR34014_6001.parquet,hour
France,NET-FR062A,MADININAIR,FR39008,Ville de Schoelcher,SPO-FR39008_6001,PM2.5,Particulate matter < 2.5 µm (aerosol),P1Y,Annual mean / 1 calendar year,2019,8.485,ug/m3,96.48,1,Background,Urban,-61.1008,14.6164,20,Fort-de-France                                                                  ,FR030C1                                           ,100038,E1a/validated data AQ e-Reporting,02/11/2024 21:46,https://eeadmz1batchservice02.blob.core.windows.net/airquality-p-e1a/FR/SPO-FR39008_6001.parquet,hour
France,NET-FR061A,LIG'AIR,FR34024,Joué lès Tours,SPO-FR34024_6001,PM2.5,Particulate matter < 2.5 µm (aerosol),P1Y,Annual mean / 1 calendar year,2019,10.512,ug/m3,98.72,1,Background,Urban,0.6538,47.3441,90,Tours                                                                           ,FR035C2                                           ,242529,E1a/validated data AQ e-Reporting,02/11/2024 21:46,https://eeadmz1batchservice02.blob.core.windows.net/airquality-p-e1a/FR/SPO-FR34024_6001.parquet,hour
France,NET-FR058A,ATMO NOUVELLE-AQUITAINE,FR35027,LIMOGES - BERLAND,SPO-FR35027_6001,PM2.5,Particulate matter < 2.5 µm (aerosol),P1Y,Annual mean / 1 calendar year,2019,8.111,ug/m3,83.14,1,Background,Urban,1.2597,45.8422,437,Limoges                                                                         ,FR024C2                                           ,143147,E1a/validated data AQ e-Reporting,02/11/2024 21:46,https://eeadmz1batchservice02.blob.core.windows.net/airquality-p-e1a/FR/SPO-FR35027_6001.parquet,hour
Austria,NET.04,Amt der Oberösterreichischen Landesregierung,AT4S125,"Bad Ischl, Rettenbachwaldstraße",SPO.04.S125.64342.6001.1,PM2.5,Particulate matter < 2.5 µm (aerosol),P1Y,Annual mean / 1 calendar year,2019,8.419,ug/m3,99.24,1,Background,Suburban,13.6322,47.7161,460,,,,E1a/validated data AQ e-Reporting,02/11/2024 21:46,https://eeadmz1batchservice02.blob.core.windows.net/airquality-p-e1a/AT/SPO.04.S125.64342.6001.1.parquet,hour
Austria,NET.01,Amt der Burgenländischen Landesregierung,AT10001,Eisenstadt Laschoberstraße,SPO.01.0001.65188.6001.1,PM2.5,Particulate matter < 2.5 µm (aerosol),P1Y,Annual mean / 1 calendar year,2019,10.663,ug/m3,82.77,1,Background,Suburban,16.5262,47.8401,165,,,,E1a/validated data AQ e-Reporting,02/11/2024 21:46,https://eeadmz1batchservice02.blob.core.windows.net/airquality-p-e1a/AT/SPO.01.0001.65188.6001.1.parquet,hour
Austria,NET.03,Amt der Niederösterreichischen Landesregierung,AT30407,Groß-Enzersdorf - Glinzendorf,SPO.03.0407.65866.6001.1,PM2.5,Particulate matter < 2.5 µm (aerosol),P1Y,Annual mean / 1 calendar year,2019,12.32,ug/m3,97.04,1,Background,Rural,16.6363,48.2307,153,,,,E1a/validated data AQ e-Reporting,02/11/2024 21:46,https://eeadmz1batchservice02.blob.core.windows.net/airquality-p-e1a/AT/SPO.03.0407.65866.6001.1.parquet,hour
Austria,NET.03,Amt der Niederösterreichischen Landesregierung,AT31413,Wiener Neudorf Hauptstraße,SPO.03.1413.64561.6001.1,PM2.5,Particulate matter < 2.5 µm (aerosol),P1Y,Annual mean / 1 calendar year,2019,12.618,ug/m3,98.81,1,Background,Suburban,16.329,48.0843,210,,,,E1a/validated data AQ e-Reporting,02/11/2024 21:46,https://eeadmz1batchservice02.blob.core.windows.net/airquality-p-e1a/AT/SPO.03.1413.64561.6001.1.parquet,hour
Austria,NET.04,Amt der Oberösterreichischen Landesregierung,AT4S217,Enns Kristein - A1 Westautobahn,SPO.04.S217.64558.6001.1,PM2.5,Particulate matter < 2.5 µm (aerosol),P1Y,Annual mean / 1 calendar year,2019,12.113,ug/m3,90.4,1,Traffic,Rural,14.4369,48.2094,255,,,,E1a/validated data AQ e-Reporting,02/11/2024 21:46,https://eeadmz1batchservice02.blob.core.windows.net/airquality-p-e1a/AT/SPO.04.S217.64558.6001.1.parquet,hour
Austria,NET.04,Amt der Oberösterreichischen Landesregierung,AT4S173,"Steyregg Au, Freizeitpark",SPO.04.S173.65929.6001.1,PM2.5,Particulate matter < 2.5 µm (aerosol),P1Y,Annual mean / 1 calendar year,2019,12.451,ug/m3,98.55,1,Background,Suburban,14.3665,48.2798,250,,,,E1a/validated data AQ e-Reporting,02/11/2024 21:46,https://eeadmz1batchservice02.blob.core.windows.net/airquality-p-e1a/AT/SPO.04.S173.65929.6001.1.parquet,hour
Austria,NET.04,Amt der Oberösterreichischen Landesregierung,AT4S404,Traun Tischlerstraße,SPO.04.S404.65686.6001.1,PM2.5,Particulate matter < 2.5 µm (aerosol),P1Y,Annual mean / 1 calendar year,2019,12.983,ug/m3,99.01,1,Background,Suburban,14.2376,48.2253,274,,,,E1a/validated data AQ e-Reporting,02/11/2024 21:46,https://eeadmz1batchservice02.blob.core.windows.net/airquality-p-e1a/AT/SPO.04.S404.65686.6001.1.parquet,hour
Netherlands,NET-NL010A,Landelijk Meetnet Luchtkwaliteit,NL00136,Heerlen-Looierstraat,SPO-NL00136_06001_101,PM2.5,Particulate matter < 2.5 µm (aerosol),P1Y,Annual mean / 1 calendar year,2019,9.915,ug/m3,99,1,Traffic,Urban,5.9705,50.888,112,Greater Heerlen                                                                 ,NL010C2                                           ,198168,E1a/validated data AQ e-Reporting,02/11/2024 21:46,https://eeadmz1batchservice02.blob.core.windows.net/airquality-p-e1a/NL/SPO-NL00136_06001_101.parquet,hour
Netherlands,NET-NL049A,Amsterdamse Meetnet Luchtkwaliteit,NL00701,Zaandam-Wagenschotpad,SPO-NL00701_06001_101,PM2.5,Particulate matter < 2.5 µm (aerosol),P1Y,Annual mean / 1 calendar year,2019,11.141,ug/m3,98.4,1,Background,Urban,4.8167,52.448,2,Zaanstad                                                                        ,NL502C1                                           ,155885,E1a/validated data AQ e-Reporting,02/11/2024 21:46,https://eeadmz1batchservice02.blob.core.windows.net/airquality-p-e1a/NL/SPO-NL00701_06001_101.parquet,hour
Netherlands,NET-NL049A,Amsterdamse Meetnet Luchtkwaliteit,NL00014,Amsterdam-Vondelpark,SPO-NL00014_06001_101,PM2.5,Particulate matter < 2.5 µm (aerosol),P1Y,Annual mean / 1 calendar year,2019,10.415,ug/m3,98.09,1,Background,Urban,4.8662,52.3597,2,Greater Amsterdam                                                               ,NL002C2                                           ,996915,E1a/validated data AQ e-Reporting,02/11/2024 21:46,https://eeadmz1batchservice02.blob.core.windows.net/airquality-p-e1a/NL/SPO-NL00014_06001_101.parquet,hour
Netherlands,NET-NL052A,Meetnet Profincie Noord Holland,NL00551,IJmuiden-Kanaaldijk,SPO-NL00551_06001_100,PM2.5,Particulate matter < 2.5 µm (aerosol),P1Y,Annual mean / 1 calendar year,2019,11.141,ug/m3,98.29,1,Industrial,Urban,4.6018,52.463,10,Greater Haarlem                                                                 ,NL501C2                                           ,280309,E1a/validated data AQ e-Reporting,02/11/2024 21:46,https://eeadmz1batchservice02.blob.core.windows.net/airquality-p-e1a/NL/SPO-NL00551_06001_100.parquet,hour
Netherlands,NET-NL010A,Landelijk Meetnet Luchtkwaliteit,NL00741,Nijmegen-Graafseweg,SPO-NL00741_06001_101,PM2.5,Particulate matter < 2.5 µm (aerosol),P1Y,Annual mean / 1 calendar year,2019,11.029,ug/m3,98.56,1,Traffic,Urban,5.8578,51.8414,31,Nijmegen                                                                        ,NL013C1                                           ,176731,E1a/validated data AQ e-Reporting,02/11/2024 21:46,https://eeadmz1batchservice02.blob.core.windows.net/airquality-p-e1a/NL/SPO-NL00741_06001_101.parquet,hour
Netherlands,NET-NL010A,Landelijk Meetnet Luchtkwaliteit,NL00937,Groningen-Europaweg,SPO-NL00937_06001_101,PM2.5,Particulate matter < 2.5 µm (aerosol),P1Y,Annual mean / 1 calendar year,2019,8.606,ug/m3,97.12,1,Traffic,Urban,6.5789,53.2178,5,Groningen                                                                       ,NL007C1                                           ,231299,E1a/validated data AQ e-Reporting,02/11/2024 21:46,https://eeadmz1batchservice02.blob.core.windows.net/airquality-p-e1a/NL/SPO-NL00937_06001_101.parquet,hour
France,NET-FR065A,QUALITAIR CORSE,FR41017,BASTIA MONTESORO,SPO-FR41017_6001,PM2.5,Particulate matter < 2.5 µm (aerosol),P1Y,Annual mean / 1 calendar year,2019,8.673,ug/m3,92.39,1,Background,Suburban,9.4346,42.6713,15,,,,E1a/validated data AQ e-Reporting,02/11/2024 21:46,https://eeadmz1batchservice02.blob.core.windows.net/airquality-p-e1a/FR/SPO-FR41017_6001.parquet,hour
France,NET-FR058A,ATMO NOUVELLE-AQUITAINE,FR31040,MARMANDE,SPO-FR31040_6001,PM2.5,Particulate matter < 2.5 µm (aerosol),P1Y,Annual mean / 1 calendar year,2019,6.864,ug/m3,88.08,1,Traffic,Suburban,0.1427,44.5088,17,,,,E1a/validated data AQ e-Reporting,02/11/2024 21:46,https://eeadmz1batchservice02.blob.core.windows.net/airquality-p-e1a/FR/SPO-FR31040_6001.parquet,hour
France,NET-FR058A,ATMO NOUVELLE-AQUITAINE,FR31041,MONT DE MARSAN,SPO-FR31041_6001,PM2.5,Particulate matter < 2.5 µm (aerosol),P1Y,Annual mean / 1 calendar year,2019,7.604,ug/m3,98.65,1,Traffic,Urban,-0.4914,43.8961,46,,,,E1a/validated data AQ e-Reporting,02/11/2024 21:46,https://eeadmz1batchservice02.blob.core.windows.net/airquality-p-e1a/FR/SPO-FR31041_6001.parquet,hour
France,NET-FR060A,ATMO REUNION,FR38011,Station Luther King,SPO-FR38011_6001,PM2.5,Particulate matter < 2.5 µm (aerosol),P1Y,Annual mean / 1 calendar year,2019,6.037,ug/m3,92.77,1,Background,Urban,55.4591,-21.3344,10,,,,E1a/validated data AQ e-Reporting,02/11/2024 21:46,https://eeadmz1batchservice02.blob.core.windows.net/airquality-p-e1a/FR/SPO-FR38011_6001.parquet,hour
France,NET-FR060A,ATMO REUNION,FR38020,Plateau Caillou,SPO-FR38020_6001,PM2.5,Particulate matter < 2.5 µm (aerosol),P1Y,Annual mean / 1 calendar year,2019,5.708,ug/m3,92.04,1,Background,Urban,55.2668,-21.0221,165,,,,E1a/validated data AQ e-Reporting,02/11/2024 21:46,https://eeadmz1batchservice02.blob.core.windows.net/airquality-p-e1a/FR/SPO-FR38020_6001.parquet,hour
France,NET-FR061A,LIG'AIR,FR34038,Verneuil,SPO-FR34038_6001,PM2.5,Particulate matter < 2.5 µm (aerosol),P1Y,Annual mean / 1 calendar year,2019,6.828,ug/m3,99.35,1,Background,Rural,2.6101,46.8147,182,,,,E1a/validated data AQ e-Reporting,02/11/2024 21:46,https://eeadmz1batchservice02.blob.core.windows.net/airquality-p-e1a/FR/SPO-FR34038_6001.parquet,hour
France,NET-FR060A,ATMO REUNION,FR38017,Grand Coude,SPO-FR38017_6001,PM2.5,Particulate matter < 2.5 µm (aerosol),P1Y,Annual mean / 1 calendar year,2019,5.606,ug/m3,94.12,1,Background,Rural,55.6279,-21.2943,1141,,,,E1a/validated data AQ e-Reporting,02/11/2024 21:46,https://eeadmz1batchservice02.blob.core.windows.net/airquality-p-e1a/FR/SPO-FR38017_6001.parquet,hour
France,NET-FR061A,LIG'AIR,FR34018,Montargis,SPO-FR34018_6001,PM2.5,Particulate matter < 2.5 µm (aerosol),P1Y,Annual mean / 1 calendar year,2019,8.827,ug/m3,97.43,1,Background,Urban,2.7195,47.9979,95,,,,E1a/validated data AQ e-Reporting,02/11/2024 21:46,https://eeadmz1batchservice02.blob.core.windows.net/airquality-p-e1a/FR/SPO-FR34018_6001.parquet,hour
Belgium,NET-Flanders,Flanders,BETR817,42R817 - ANTWERPEN,SPO-BETR817_06001_100,PM2.5,Particulate matter < 2.5 µm (aerosol),P1Y,Annual mean / 1 calendar year,2019,11.386,ug/m3,99.1,1,Background,Suburban,4.418,51.1771,6,Antwerpen                                                                       ,BE002C1                                           ,530014,E1a/validated data AQ e-Reporting,02/11/2024 21:46,https://eeadmz1batchservice02.blob.core.windows.net/airquality-p-e1a/BE/SPO-BETR817_06001_100.parquet,hour
Belgium,NET-Wallonia,Wallonia,BETM204,43M204 - ANGLEUR,SPO-BETM204_06001_100,PM2.5,Particulate matter < 2.5 µm (aerosol),P1Y,Annual mean / 1 calendar year,2019,7.073,ug/m3,99.43,1,Background,Suburban,5.6112,50.6119,70,Liège                                                                           ,BE005C1                                           ,383700,E1a/validated data AQ e-Reporting,02/11/2024 21:46,https://eeadmz1batchservice02.blob.core.windows.net/airquality-p-e1a/BE/SPO-BETM204_06001_100.parquet,hour
Belgium,NET-Wallonia,Wallonia,BETH201,43H201 - LIEGE,SPO-BETH201_06001_100,PM2.5,Particulate matter < 2.5 µm (aerosol),P1Y,Annual mean / 1 calendar year,2019,8.561,ug/m3,99.75,1,Background,Suburban,5.5475,50.625,160,Liège                                                                           ,BE005C1                                           ,383700,E1a/validated data AQ e-Reporting,02/11/2024 21:46,https://eeadmz1batchservice02.blob.core.windows.net/airquality-p-e1a/BE/SPO-BETH201_06001_100.parquet,hour
Belgium,NET-Wallonia,Wallonia,BETN070,43N070 - MONS,SPO-BETN070_06001_100,PM2.5,Particulate matter < 2.5 µm (aerosol),P1Y,Annual mean / 1 calendar year,2019,10.51,ug/m3,98.86,1,Background,Suburban,3.9397,50.4652,30,Mons                                                                            ,BE009C1                                           ,95922,E1a/validated data AQ e-Reporting,02/11/2024 21:46,https://eeadmz1batchservice02.blob.core.windows.net/airquality-p-e1a/BE/SPO-BETN070_06001_100.parquet,hour
Belgium,NET-Wallonia,Wallonia,BETR502,45R502 - LODELINSART,SPO-BETR502_06001_100,PM2.5,Particulate matter < 2.5 µm (aerosol),P1Y,Annual mean / 1 calendar year,2019,10.508,ug/m3,99.73,1,Background,Suburban,4.4587,50.429,135,Charleroi                                                                       ,BE004C1                                           ,203314,E1a/validated data AQ e-Reporting,02/11/2024 21:46,https://eeadmz1batchservice02.blob.core.windows.net/airquality-p-e1a/BE/SPO-BETR502_06001_100.parquet,hour
Belgium,NET-Wallonia,Wallonia,BETR222,43R222 - SERAING,SPO-BETR222_06001_100,PM2.5,Particulate matter < 2.5 µm (aerosol),P1Y,Annual mean / 1 calendar year,2019,9.277,ug/m3,99.2,1,Background,Suburban,5.5702,50.6134,65,Liège                                                                           ,BE005C1                                           ,383700,E1a/validated data AQ e-Reporting,02/11/2024 21:46,https://eeadmz1batchservice02.blob.core.windows.net/airquality-p-e1a/BE/SPO-BETR222_06001_100.parquet,hour
Iceland,NET-IS009A,HHGK-netið,IS0046A,Hafnarfjörður Norðurhella,SPO-IS0046A_06001_100,PM2.5,Particulate matter < 2.5 µm (aerosol),P1Y,Annual mean / 1 calendar year,2019,4.458,ug/m3,91.26,1,Background,Suburban,-21.9854,64.0442,19,Reykjavik                                                                       ,IS001C1                                           ,132252,E1a/validated data AQ e-Reporting,02/11/2024 21:46,https://eeadmz1batchservice02.blob.core.windows.net/airquality-p-e1a/IS/SPO-IS0046A_06001_100.parquet,hour
Iceland,NET-IS002A,Environment Agency of Iceland,IS0002A,Hafnarfjörður Hvaleyrarholt,SPO-IS0002A_06001_100,PM2.5,Particulate matter < 2.5 µm (aerosol),P1Y,Annual mean / 1 calendar year,2019,4.037,ug/m3,99.82,1,Background,Suburban,-21.9907,64.0589,24,Reykjavik                                                                       ,IS001C1                                           ,132252,E1a/validated data AQ e-Reporting,02/11/2024 21:46,https://eeadmz1batchservice02.blob.core.windows.net/airquality-p-e1a/IS/SPO-IS0002A_06001_100.parquet,hour
Italy,NET.IT085A,PROVINCIAL MONITORING NETWORK OF BOLZANO,IT1696A,LS1 Laives,SPO.IT1696A_6001_nephelometry_beta_2008-02-16_00:00:00,PM2.5,Particulate matter < 2.5 µm (aerosol),P1Y,Annual mean / 1 calendar year,2019,11.533,ug/m3,98.24,1,Background,Suburban,11.3401,46.4348,230,,,,E1a/validated data AQ e-Reporting,02/11/2024 21:46,https://eeadmz1batchservice02.blob.core.windows.net/airquality-p-e1a/IT/SPO.IT1696A_6001_nephelometry_beta_2008-02-16_00_00_00.parquet,hour
Italy,NET.IT085A,PROVINCIAL MONITORING NETWORK OF BOLZANO,IT0499A,LA1 Laces,SPO.IT0499A_6001_nephelometry_beta_2007-12-28_00:00:00,PM2.5,Particulate matter < 2.5 µm (aerosol),P1Y,Annual mean / 1 calendar year,2019,11.098,ug/m3,97.95,1,Background,Urban,10.8591,46.6195,640,,,,E1a/validated data AQ e-Reporting,02/11/2024 21:46,https://eeadmz1batchservice02.blob.core.windows.net/airquality-p-e1a/IT/SPO.IT0499A_6001_nephelometry_beta_2007-12-28_00_00_00.parquet,hour
Italy,NET.IT116A,MONITORAGGIO AMBIENTALE DELLA REGIONE CAMPANIA A CURA DELL'A.R.P.A.C.,IT2226A,Pomigliano d'Arco Area ASI,SPO.IT2226A_6001_BETA_2015-05-01_00:00:00,PM2.5,Particulate matter < 2.5 µm (aerosol),P1Y,Annual mean / 1 calendar year,2019,19.012,ug/m3,92.03,1,Industrial,Suburban,14.3895,40.9209,29,Napoli (greater city)                                                           ,IT003K1                                           ,2855958,E1a/validated data AQ e-Reporting,02/11/2024 21:46,https://eeadmz1batchservice02.blob.core.windows.net/airquality-p-e1a/IT/SPO.IT2226A_6001_BETA_2015-05-01_00_00_00.parquet,hour
Italy,NET.IT127A,PROVINCIA DI SAVONA,IT2155A,CENGIO - RIO PARASACCO,SPO.IT2155A_6001_BETA_2014-09-01_00:00:00,PM2.5,Particulate matter < 2.5 µm (aerosol),P1Y,Annual mean / 1 calendar year,2019,8.689,ug/m3,92.15,1,Background,Rural,8.206,44.397,450,,,,E1a/validated data AQ e-Reporting,02/11/2024 21:46,https://eeadmz1batchservice02.blob.core.windows.net/airquality-p-e1a/IT/SPO.IT2155A_6001_BETA_2014-09-01_00_00_00.parquet,hour
Poland,NET_PL_KP_AQ,Kujawsko-Pomorska Sieć Monitoringu Powietrza,PL0751A,"Mogilno,Kościuszki",SPO_PL0751A_6001_001,PM2.5,Particulate matter < 2.5 µm (aerosol),P1Y,Annual mean / 1 calendar year,2019,20.623,ug/m3,94.97,1,Background,Urban,17.9496,52.6568,97,,,,E1a/validated data AQ e-Reporting,02/11/2024 21:46,https://eeadmz1batchservice02.blob.core.windows.net/airquality-p-e1a/PL/SPO_PL0751A_6001_001.parquet,hour
Norway,NET_NO029A,NO029A,NO0111A,Vigernes,SPO_NO0111A_6001_1693,PM2.5,Particulate matter < 2.5 µm (aerosol),P1Y,Annual mean / 1 calendar year,2019,5.07,ug/m3,90.02,1,Traffic,Suburban,11.074,59.9555,105,,,,E1a/validated data AQ e-Reporting,02/11/2024 21:46,https://eeadmz1batchservice02.blob.core.windows.net/airquality-p-e1a/NO/SPO_NO0111A_6001_1693.parquet,hour
Norway,NET_NO027A,NO027A,NO0104A,"Vangsveien, Hamar",SPO_NO0104A_6001_1672,PM2.5,Particulate matter < 2.5 µm (aerosol),P1Y,Annual mean / 1 calendar year,2019,7.071,ug/m3,90.14,1,Traffic,Suburban,11.0978,60.7965,130,,,,E1a/validated data AQ e-Reporting,02/11/2024 21:46,https://eeadmz1batchservice02.blob.core.windows.net/airquality-p-e1a/NO/SPO_NO0104A_6001_1672.parquet,hour
Poland,NET_PL_DS_AQ,Dolnośląska Sieć Monitoringu Powietrza,PL0733A,Duszniki-Zdrój,SPO_PL0733A_6001_001,PM2.5,Particulate matter < 2.5 µm (aerosol),P1Y,Annual mean / 1 calendar year,2019,20.349,ug/m3,98.7,1,Background,Urban,16.3933,50.4026,521,,,,E1a/validated data AQ e-Reporting,02/11/2024 21:46,https://eeadmz1batchservice02.blob.core.windows.net/airquality-p-e1a/PL/SPO_PL0733A_6001_001.parquet,hour
Poland,NET_PL_DS_AQ,Dolnośląska Sieć Monitoringu Powietrza,PL0734A,Jawor,SPO_PL0734A_6001_001,PM2.5,Particulate matter < 2.5 µm (aerosol),P1Y,Annual mean / 1 calendar year,2019,17.588,ug/m3,99.44,1,Background,Urban,16.2023,51.0492,201,,,,E1a/validated data AQ e-Reporting,02/11/2024 21:46,https://eeadmz1batchservice02.blob.core.windows.net/airquality-p-e1a/PL/SPO_PL0734A_6001_001.parquet,hour
Slovakia,NET-SK001A,"""Urban and Local Air Quality Monitoring Network""",SK0030A,"""Strazske - Mierova""",SPO-SK0030A_06001_100,PM2.5,Particulate matter < 2.5 µm (aerosol),P1Y,Annual mean / 1 calendar year,2019,18.585,ug/m3,98.69,1,Background,Urban,21.8376,48.874,133,,,,E1a/validated data AQ e-Reporting,02/11/2024 21:46,https://eeadmz1batchservice02.blob.core.windows.net/airquality-p-e1a/SK/SPO-SK0030A_06001_100.parquet,hour
Slovakia,NET-SK001A,"""Urban and Local Air Quality Monitoring Network""",SK0022A,"""Hnusta - Hlavna""",SPO-SK0022A_06001_100,PM2.5,Particulate matter < 2.5 µm (aerosol),P1Y,Annual mean / 1 calendar year,2019,15.75,ug/m3,97.48,1,Background,Urban,19.9516,48.5839,320,,,,E1a/validated data AQ e-Reporting,02/11/2024 21:46,https://eeadmz1batchservice02.blob.core.windows.net/airquality-p-e1a/SK/SPO-SK0022A_06001_100.parquet,hour
Belgium,NET-Flanders,Flanders,BETR803,42R803 - ANTWERPEN,SPO-BETR803_06001_100,PM2.5,Particulate matter < 2.5 µm (aerosol),P1Y,Annual mean / 1 calendar year,2019,13.037,ug/m3,99.55,1,Background,Urban,4.4285,51.2286,0,Antwerpen                                                                       ,BE002C1                                           ,530014,E1a/validated data AQ e-Reporting,02/11/2024 21:46,https://eeadmz1batchservice02.blob.core.windows.net/airquality-p-e1a/BE/SPO-BETR803_06001_100.parquet,hour
Belgium,NET-Wallonia,Wallonia,BETR221,43R221 - LIEGE,SPO-BETR221_06001_100,PM2.5,Particulate matter < 2.5 µm (aerosol),P1Y,Annual mean / 1 calendar year,2019,8.601,ug/m3,99.43,1,Background,Urban,5.6278,50.6584,65,Liège                                                                           ,BE005C1                                           ,383700,E1a/validated data AQ e-Reporting,02/11/2024 21:46,https://eeadmz1batchservice02.blob.core.windows.net/airquality-p-e1a/BE/SPO-BETR221_06001_100.parquet,hour
Belgium,NET-Wallonia,Wallonia,BETR501,45R501 - CHARLEROI,SPO-BETR501_06001_100,PM2.5,Particulate matter < 2.5 µm (aerosol),P1Y,Annual mean / 1 calendar year,2019,10.415,ug/m3,99.46,1,Background,Urban,4.4522,50.4093,115,Charleroi                                                                       ,BE004C1                                           ,203314,E1a/validated data AQ e-Reporting,02/11/2024 21:46,https://eeadmz1batchservice02.blob.core.windows.net/airquality-p-e1a/BE/SPO-BETR501_06001_100.parquet,hour
Belgium,NET-Wallonia,Wallonia,BETR401,43R401 - NAMUR,SPO-BETR401_06001_100,PM2.5,Particulate matter < 2.5 µm (aerosol),P1Y,Annual mean / 1 calendar year,2019,9.394,ug/m3,78.07,1,Background,Urban,4.8653,50.4624,65,Namur                                                                           ,BE007C1                                           ,112125,E1a/validated data AQ e-Reporting,02/11/2024 21:46,https://eeadmz1batchservice02.blob.core.windows.net/airquality-p-e1a/BE/SPO-BETR401_06001_100.parquet,hour
Czechia,NET-CZ001A,National automated monitoring network (SIS),CZ0ASTO,Praha 5-Stodulky,SPO.CZ_ASTOA_PM2_5_867319,PM2.5,Particulate matter < 2.5 µm (aerosol),P1Y,Annual mean / 1 calendar year,2019,12.28,ug/m3,99.84,1,Background,Urban,14.3314,50.0461,309,Praha                                                                           ,CZ001C1                                           ,1324277,E1a/validated data AQ e-Reporting,02/11/2024 21:46,https://eeadmz1batchservice02.blob.core.windows.net/airquality-p-e1a/CZ/SPO.CZ_ASTOA_PM2_5_867319.parquet,hour
Czechia,NET-CZ001A,National automated monitoring network (SIS),CZ0ARIE,Praha 2-Riegrovy sady,SPO.CZ_ARIEA_PM2_5_867322,PM2.5,Particulate matter < 2.5 µm (aerosol),P1Y,Annual mean / 1 calendar year,2019,13.63,ug/m3,97.74,1,Background,Urban,14.4427,50.0815,256,Praha                                                                           ,CZ001C1                                           ,1324277,E1a/validated data AQ e-Reporting,02/11/2024 21:46,https://eeadmz1batchservice02.blob.core.windows.net/airquality-p-e1a/CZ/SPO.CZ_ARIEA_PM2_5_867322.parquet,hour
Czechia,NET-CZ001A,National automated monitoring network (SIS),CZ0ALEG,Praha 2-Legerova,SPO.CZ_ALEGA_PM2_5_867419,PM2.5,Particulate matter < 2.5 µm (aerosol),P1Y,Annual mean / 1 calendar year,2019,17.343,ug/m3,99.92,1,Traffic,Urban,14.4307,50.0724,219,Praha                                                                           ,CZ001C1                                           ,1324277,E1a/validated data AQ e-Reporting,02/11/2024 21:46,https://eeadmz1batchservice02.blob.core.windows.net/airquality-p-e1a/CZ/SPO.CZ_ALEGA_PM2_5_867419.parquet,hour
Czechia,NET-CZ001A,National automated monitoring network (SIS),CZ0BBDN,Brno - Detska nemocnice,SPO.CZ_BBDNA_PM2_5_1316708,PM2.5,Particulate matter < 2.5 µm (aerosol),P1Y,Annual mean / 1 calendar year,2019,16.262,ug/m3,99.02,1,Background,Urban,16.6163,49.2027,225,Brno                                                                            ,CZ002C1                                           ,381346,E1a/validated data AQ e-Reporting,02/11/2024 21:46,https://eeadmz1batchservice02.blob.core.windows.net/airquality-p-e1a/CZ/SPO.CZ_BBDNA_PM2_5_1316708.parquet,hour
Czechia,NET-CZ001A,National automated monitoring network (SIS),CZ0BBNV,Brno-Uvoz,SPO.CZ_BBNVA_PM2_5_1369782,PM2.5,Particulate matter < 2.5 µm (aerosol),P1Y,Annual mean / 1 calendar year,2019,16.214,ug/m3,98.25,1,Traffic,Urban,16.5936,49.1981,235,Brno                                                                            ,CZ002C1                                           ,381346,E1a/validated data AQ e-Reporting,02/11/2024 21:46,https://eeadmz1batchservice02.blob.core.windows.net/airquality-p-e1a/CZ/SPO.CZ_BBNVA_PM2_5_1369782.parquet,hour
Czechia,NET-CZ001A,National automated monitoring network (SIS),CZ0BBNI,Brno-Lisen,SPO.CZ_BBNIA_PM2_5_1368852,PM2.5,Particulate matter < 2.5 µm (aerosol),P1Y,Annual mean / 1 calendar year,2019,13.783,ug/m3,99,1,Background,Urban,16.678,49.2132,340,Brno                                                                            ,CZ002C1                                           ,381346,E1a/validated data AQ e-Reporting,02/11/2024 21:46,https://eeadmz1batchservice02.blob.core.windows.net/airquality-p-e1a/CZ/SPO.CZ_BBNIA_PM2_5_1368852.parquet,hour
Czechia,NET-CZ001A,National automated monitoring network (SIS),CZ0JJIH,Jihlava,SPO.CZ_JJIHA_PM2_5_41134,PM2.5,Particulate matter < 2.5 µm (aerosol),P1Y,Annual mean / 1 calendar year,2019,13.878,ug/m3,99.66,1,Background,Urban,15.6102,49.4016,502,Jihlava                                                                         ,CZ014C1                                           ,51216,E1a/validated data AQ e-Reporting,02/11/2024 21:46,https://eeadmz1batchservice02.blob.core.windows.net/airquality-p-e1a/CZ/SPO.CZ_JJIHA_PM2_5_41134.parquet,hour
Czechia,NET-CZ001A,National automated monitoring network (SIS),CZ0CCBD,Ceske Budejovice,SPO.CZ_CCBDA_PM2_5_40743,PM2.5,Particulate matter < 2.5 µm (aerosol),P1Y,Annual mean / 1 calendar year,2019,12.782,ug/m3,98.21,1,Background,Urban,14.4657,48.9844,383,Ceské Budejovice                                                                ,CZ008C1                                           ,94463,E1a/validated data AQ e-Reporting,02/11/2024 21:46,https://eeadmz1batchservice02.blob.core.windows.net/airquality-p-e1a/CZ/SPO.CZ_CCBDA_PM2_5_40743.parquet,hour
Greece,NET-GR016A,monitoring network of Athens,GR0039A,Agia PARASKEVI,SPO-GR0039A_06001_101,PM2.5,Particulate matter < 2.5 µm (aerosol),P1Y,Annual mean / 1 calendar year,2019,11.871,ug/m3,89.92,1,Background,Suburban,23.8194,37.9951,290,Athina                                                                          ,EL001C1                                           ,664046,E1a/validated data AQ e-Reporting,02/11/2024 21:46,https://eeadmz1batchservice02.blob.core.windows.net/airquality-p-e1a/GR/SPO-GR0039A_06001_101.parquet,hour
Italy,NET.IT282A,RETE REGIONALE QUALIT? ARIA AMBIENTE,IT1796A,Civitanova IPPODROMO S. MARONE,SPO.IT1796A_6001_TEOM_2006-02-20_00:00:00,PM2.5,Particulate matter < 2.5 µm (aerosol),P1Y,Annual mean / 1 calendar year,2019,10.367,ug/m3,95.63,1,Background,Rural,13.6747,43.3356,110,,,,E1a/validated data AQ e-Reporting,02/11/2024 21:46,https://eeadmz1batchservice02.blob.core.windows.net/airquality-p-e1a/IT/SPO.IT1796A_6001_TEOM_2006-02-20_00_00_00.parquet,hour
Italy,NET.IT282A,RETE REGIONALE QUALIT? ARIA AMBIENTE,IT0459A,CHIARAVALLE2,SPO.IT0459A_6001_BETA_2006-02-20_00:00:00,PM2.5,Particulate matter < 2.5 µm (aerosol),P1Y,Annual mean / 1 calendar year,2019,14.164,ug/m3,93.84,1,Background,Suburban,13.3419,43.5989,15,,,,E1a/validated data AQ e-Reporting,02/11/2024 21:46,https://eeadmz1batchservice02.blob.core.windows.net/airquality-p-e1a/IT/SPO.IT0459A_6001_BETA_2006-02-20_00_00_00.parquet,hour
Italy,NET.IT282A,RETE REGIONALE QUALIT? ARIA AMBIENTE,IT0461A,FALCONARA SCUOLA,SPO.IT0461A_6001_BETA_2005-11-01_00:00:00,PM2.5,Particulate matter < 2.5 µm (aerosol),P1Y,Annual mean / 1 calendar year,2019,15.139,ug/m3,94.6,1,Industrial,Suburban,13.3875,43.6333,10,,,,E1a/validated data AQ e-Reporting,02/11/2024 21:46,https://eeadmz1batchservice02.blob.core.windows.net/airquality-p-e1a/IT/SPO.IT0461A_6001_BETA_2005-11-01_00_00_00.parquet,hour
Italy,NET.IT282A,RETE REGIONALE QUALIT? ARIA AMBIENTE,IT1578A,VIA SCARPELLINI,SPO.IT1578A_6001_BETA_2005-04-15_00:00:00,PM2.5,Particulate matter < 2.5 µm (aerosol),P1Y,Annual mean / 1 calendar year,2019,17.325,ug/m3,95.07,1,Background,Suburban,12.9189,43.8933,20,Pesaro                                                                          ,IT039C1                                           ,95152,E1a/validated data AQ e-Reporting,02/11/2024 21:46,https://eeadmz1batchservice02.blob.core.windows.net/airquality-p-e1a/IT/SPO.IT1578A_6001_BETA_2005-04-15_00_00_00.parquet,hour
Lithuania,NET-LT001A,"""National Air Monitoring Network""",LT00044,"""Kaunas - Noreikiskes""",SPO-LT00044_06001_101,PM2.5,Particulate matter < 2.5 µm (aerosol),P1Y,Annual mean / 1 calendar year,2019,15.472,ug/m3,89.6,1,Background,Urban,23.8358,54.8836,73,,,,E1a/validated data AQ e-Reporting,02/11/2024 21:46,https://eeadmz1batchservice02.blob.core.windows.net/airquality-p-e1a/LT/SPO-LT00044_06001_101.parquet,hour
Greece,NET-GR016A,monitoring network of Athens,GR0037A,THRAKOMAKEDONES,SPO-GR0037A_06001_110,PM2.5,Particulate matter < 2.5 µm (aerosol),P1Y,Annual mean / 1 calendar year,2019,13.123,ug/m3,75.92,1,Background,Suburban,23.7582,38.1435,550,Athina                                                                          ,EL001C1                                           ,664046,E1a/validated data AQ e-Reporting,02/11/2024 21:46,https://eeadmz1batchservice02.blob.core.windows.net/airquality-p-e1a/GR/SPO-GR0037A_06001_110.parquet,hour
Greece,NET-GR016A,monitoring network of Athens,GR0035A,LYKOVRISI,SPO-GR0035A_06001_101,PM2.5,Particulate matter < 2.5 µm (aerosol),P1Y,Annual mean / 1 calendar year,2019,16.408,ug/m3,79.41,1,Background,Suburban,23.789,38.0678,210,Athina                                                                          ,EL001C1                                           ,664046,E1a/validated data AQ e-Reporting,02/11/2024 21:46,https://eeadmz1batchservice02.blob.core.windows.net/airquality-p-e1a/GR/SPO-GR0035A_06001_101.parquet,hour
Italy,NET.IT116A,MONITORAGGIO AMBIENTALE DELLA REGIONE CAMPANIA A CURA DELL'A.R.P.A.C.,IT1493A,NA09 I.T.I.S. ARGINE,SPO.IT1493A_6001_BETA_2016-03-09_17:00:00,PM2.5,Particulate matter < 2.5 µm (aerosol),P1Y,Annual mean / 1 calendar year,2019,17.962,ug/m3,88.45,1,Traffic,Suburban,14.3411,40.8643,33,Napoli (greater city)                                                           ,IT003K1                                           ,2855958,E1a/validated data AQ e-Reporting,02/11/2024 21:46,https://eeadmz1batchservice02.blob.core.windows.net/airquality-p-e1a/IT/SPO.IT1493A_6001_BETA_2016-03-09_17_00_00.parquet,hour
Italy,NET.IT123A,PROVINCIA DELLA SPEZIA,IT1536A,MAGGIOLINA - LA SPEZIA,SPO.IT1536A_6001_BETA_2015-01-01_00:00:00,PM2.5,Particulate matter < 2.5 µm (aerosol),P1Y,Annual mean / 1 calendar year,2019,11.114,ug/m3,96.46,1,Background,Urban,9.8439,44.116,6,La Spezia                                                                       ,IT036C1                                           ,92550,E1a/validated data AQ e-Reporting,02/11/2024 21:46,https://eeadmz1batchservice02.blob.core.windows.net/airquality-p-e1a/IT/SPO.IT1536A_6001_BETA_2015-01-01_00_00_00.parquet,hour
Italy,NET.IT123A,PROVINCIA DELLA SPEZIA,IT1456A,SAN CIPRIANO - LIBERTA - LA SPEZIA,SPO.IT1456A_6001_BETA_2015-01-01_00:00:00,PM2.5,Particulate matter < 2.5 µm (aerosol),P1Y,Annual mean / 1 calendar year,2019,12.312,ug/m3,95.71,1,Traffic,Urban,9.8321,44.1108,2,La Spezia                                                                       ,IT036C1                                           ,92550,E1a/validated data AQ e-Reporting,02/11/2024 21:46,https://eeadmz1batchservice02.blob.core.windows.net/airquality-p-e1a/IT/SPO.IT1456A_6001_BETA_2015-01-01_00_00_00.parquet,hour
Italy,NET.IT282A,RETE REGIONALE QUALIT? ARIA AMBIENTE,IT1795A,Macerata COLLEVARIO,SPO.IT1795A_6001_TEOM_2017-03-10_00:00:00,PM2.5,Particulate matter < 2.5 µm (aerosol),P1Y,Annual mean / 1 calendar year,2019,10.037,ug/m3,96.7,1,Background,Suburban,13.4286,43.285,225,,,,E1a/validated data AQ e-Reporting,02/11/2024 21:46,https://eeadmz1batchservice02.blob.core.windows.net/airquality-p-e1a/IT/SPO.IT1795A_6001_TEOM_2017-03-10_00_00_00.parquet,hour
France,NET-FR060A,ATMO REUNION,FR38008,Ecole JOINVILLE,SPO-FR38008_6001,PM2.5,Particulate matter < 2.5 µm (aerosol),P1Y,Annual mean / 1 calendar year,2019,8.013,ug/m3,97.55,1,Background,Urban,55.4539,-20.8846,30,Saint Denis                                                                     ,FR028C1                                           ,147931,E1a/validated data AQ e-Reporting,02/11/2024 21:46,https://eeadmz1batchservice02.blob.core.windows.net/airquality-p-e1a/FR/SPO-FR38008_6001.parquet,hour
France,NET-FR061A,LIG'AIR,FR34048,Chartres_trafic,SPO-FR34048_6001,PM2.5,Particulate matter < 2.5 µm (aerosol),P1Y,Annual mean / 1 calendar year,2019,10.527,ug/m3,97.48,1,Traffic,Urban,1.4925,48.4492,129,Chartres                                                                        ,FR060C2                                           ,75990,E1a/validated data AQ e-Reporting,02/11/2024 21:46,https://eeadmz1batchservice02.blob.core.windows.net/airquality-p-e1a/FR/SPO-FR34048_6001.parquet,hour
France,NET-FR068A,ATMO OCCITANIE,FR08016,Montpellier Prés d'Arènes,SPO-FR08016_6001,PM2.5,Particulate matter < 2.5 µm (aerosol),P1Y,Annual mean / 1 calendar year,2019,7.194,ug/m3,97.75,1,Background,Urban,3.8868,43.5915,23,Montpellier                                                                     ,FR010C1                                           ,305601,E1a/validated data AQ e-Reporting,02/11/2024 21:46,https://eeadmz1batchservice02.blob.core.windows.net/airquality-p-e1a/FR/SPO-FR08016_6001.parquet,hour
France,NET-FR064A,GWAD'AIR,FR37006,PTP-VICTOIRE,SPO-FR37006_6001,PM2.5,Particulate matter < 2.5 µm (aerosol),P1Y,Annual mean / 1 calendar year,2019,8.121,ug/m3,98.31,1,Background,Urban,-61.5341,16.2367,7,Les Abymes                                                                      ,FR520C1                                           ,53082,E1a/validated data AQ e-Reporting,02/11/2024 21:46,https://eeadmz1batchservice02.blob.core.windows.net/airquality-p-e1a/FR/SPO-FR37006_6001.parquet,hour
France,NET-FR068A,ATMO OCCITANIE,FR12030,Toulouse Berthelot,SPO-FR12030_6001,PM2.5,Particulate matter < 2.5 µm (aerosol),P1Y,Annual mean / 1 calendar year,2019,8.383,ug/m3,92.95,1,Background,Urban,1.444,43.5873,146,Toulouse                                                                        ,FR004C2                                           ,613199,E1a/validated data AQ e-Reporting,02/11/2024 21:46,https://eeadmz1batchservice02.blob.core.windows.net/airquality-p-e1a/FR/SPO-FR12030_6001.parquet,hour
France,NET-FR068A,ATMO OCCITANIE,FR08030,Pompignane,SPO-FR08030_6001,PM2.5,Particulate matter < 2.5 µm (aerosol),P1Y,Annual mean / 1 calendar year,2019,9.159,ug/m3,96.75,1,Traffic,Urban,3.8988,43.6096,17,Montpellier                                                                     ,FR010C1                                           ,305601,E1a/validated data AQ e-Reporting,02/11/2024 21:46,https://eeadmz1batchservice02.blob.core.windows.net/airquality-p-e1a/FR/SPO-FR08030_6001.parquet,hour
France,NET-FR068A,ATMO OCCITANIE,FR08614,Nimes Gauzy,SPO-FR08614_6001,PM2.5,Particulate matter < 2.5 µm (aerosol),P1Y,Annual mean / 1 calendar year,2019,8.182,ug/m3,97.12,1,Background,Urban,4.3744,43.8344,42,Nîmes                                                                           ,FR044C2                                           ,150610,E1a/validated data AQ e-Reporting,02/11/2024 21:46,https://eeadmz1batchservice02.blob.core.windows.net/airquality-p-e1a/FR/SPO-FR08614_6001.parquet,hour
Netherlands,NET-NL010A,Landelijk Meetnet Luchtkwaliteit,NL00538,Wieringerwerf-Medemblikkerweg,SPO-NL00538_06001_101,PM2.5,Particulate matter < 2.5 µm (aerosol),P1Y,Annual mean / 1 calendar year,2019,8.516,ug/m3,93.3,1,Background,Rural,5.0505,52.8037,-2,,,,E1a/validated data AQ e-Reporting,02/11/2024 21:46,https://eeadmz1batchservice02.blob.core.windows.net/airquality-p-e1a/NL/SPO-NL00538_06001_101.parquet,hour
Norway,NET_NO003A,NO003A,NO0132A,Bryn skole,SPO_NO0132A_6001_3039,PM2.5,Particulate matter < 2.5 µm (aerosol),P1Y,Annual mean / 1 calendar year,2019,8.294,ug/m3,95.18,1,Background,Suburban,10.8247,59.9142,100,Oslo                                                                            ,NO001C1                                           ,623966,E1a/validated data AQ e-Reporting,02/11/2024 21:46,https://eeadmz1batchservice02.blob.core.windows.net/airquality-p-e1a/NO/SPO_NO0132A_6001_3039.parquet,hour
Netherlands,NET-NL010A,Landelijk Meetnet Luchtkwaliteit,NL00641,Breukelen-Snelweg,SPO-NL00641_06001_101,PM2.5,Particulate matter < 2.5 µm (aerosol),P1Y,Annual mean / 1 calendar year,2019,9.804,ug/m3,99.01,1,Traffic,Urban,4.9874,52.2015,1,,,,E1a/validated data AQ e-Reporting,02/11/2024 21:46,https://eeadmz1batchservice02.blob.core.windows.net/airquality-p-e1a/NL/SPO-NL00641_06001_101.parquet,hour
Netherlands,NET-NL010A,Landelijk Meetnet Luchtkwaliteit,NL00738,Wekerom-Riemterdijk,SPO-NL00738_06001_101,PM2.5,Particulate matter < 2.5 µm (aerosol),P1Y,Annual mean / 1 calendar year,2019,11.054,ug/m3,98.92,1,Background,Rural,5.7084,52.1116,22,Greater Ede                                                                     ,NL512C2                                           ,154484,E1a/validated data AQ e-Reporting,02/11/2024 21:46,https://eeadmz1batchservice02.blob.core.windows.net/airquality-p-e1a/NL/SPO-NL00738_06001_101.parquet,hour
Norway,NET_NO007A,NO007A,NO0118A,Knarrdalstranda,SPO_NO0118A_6001_2727,PM2.5,Particulate matter < 2.5 µm (aerosol),P1Y,Annual mean / 1 calendar year,2019,7.417,ug/m3,96.97,1,Background,Suburban,9.6219,59.1335,5,,,,E1a/validated data AQ e-Reporting,02/11/2024 21:46,https://eeadmz1batchservice02.blob.core.windows.net/airquality-p-e1a/NO/SPO_NO0118A_6001_2727.parquet,hour
Netherlands,NET-NL010A,Landelijk Meetnet Luchtkwaliteit,NL00934,Kollumerwaard-Hooge Zuidwal,SPO-NL00934_06001_101,PM2.5,Particulate matter < 2.5 µm (aerosol),P1Y,Annual mean / 1 calendar year,2019,8.384,ug/m3,98.2,1,Background,Rural,6.2768,53.3304,1,,,,E1a/validated data AQ e-Reporting,02/11/2024 21:46,https://eeadmz1batchservice02.blob.core.windows.net/airquality-p-e1a/NL/SPO-NL00934_06001_101.parquet,hour
Norway,NET_NO011A,NO011A,NO0075A,Lillehammer barnehage,SPO_NO0075A_6001_614,PM2.5,Particulate matter < 2.5 µm (aerosol),P1Y,Annual mean / 1 calendar year,2019,6.02,ug/m3,99.62,1,Background,Suburban,10.4656,61.1209,212,,,,E1a/validated data AQ e-Reporting,02/11/2024 21:46,https://eeadmz1batchservice02.blob.core.windows.net/airquality-p-e1a/NO/SPO_NO0075A_6001_614.parquet,hour
Austria,NET.04,Amt der Oberösterreichischen Landesregierung,AT4S409,Steyr Münichholz,SPO.04.S409.64673.6001.1,PM2.5,Particulate matter < 2.5 µm (aerosol),P1Y,Annual mean / 1 calendar year,2019,10.954,ug/m3,98.36,1,Background,Suburban,14.4428,48.0494,305,,,,E1a/validated data AQ e-Reporting,02/11/2024 21:46,https://eeadmz1batchservice02.blob.core.windows.net/airquality-p-e1a/AT/SPO.04.S409.64673.6001.1.parquet,hour
Austria,NET.04,Amt der Oberösterreichischen Landesregierung,AT4S407,"Vöcklabruck, Untere Agergasse",SPO.04.S407.64671.6001.1,PM2.5,Particulate matter < 2.5 µm (aerosol),P1Y,Annual mean / 1 calendar year,2019,11.38,ug/m3,99.25,1,Background,Suburban,13.6676,48.0009,420,,,,E1a/validated data AQ e-Reporting,02/11/2024 21:46,https://eeadmz1batchservice02.blob.core.windows.net/airquality-p-e1a/AT/SPO.04.S407.64671.6001.1.parquet,hour
Austria,NET.06,Amt der Steiermärkischen Landesregierung,AT60107,Voitsberg Mühlgasse,SPO.06.107.65788.6001.1,PM2.5,Particulate matter < 2.5 µm (aerosol),P1Y,Annual mean / 1 calendar year,2019,10.14,ug/m3,99.58,1,Background,Suburban,15.1528,47.0447,390,,,,E1a/validated data AQ e-Reporting,02/11/2024 21:46,https://eeadmz1batchservice02.blob.core.windows.net/airquality-p-e1a/AT/SPO.06.107.65788.6001.1.parquet,hour
Austria,NET.06,Amt der Steiermärkischen Landesregierung,AT60178,Weiz Bahnhofstraße,SPO.06.178.66059.6001.1,PM2.5,Particulate matter < 2.5 µm (aerosol),P1Y,Annual mean / 1 calendar year,2019,11.655,ug/m3,99.41,1,Background,Suburban,15.6284,47.2157,459,,,,E1a/validated data AQ e-Reporting,02/11/2024 21:46,https://eeadmz1batchservice02.blob.core.windows.net/airquality-p-e1a/AT/SPO.06.178.66059.6001.1.parquet,hour
Austria,NET.06,Amt der Steiermärkischen Landesregierung,AT60197,Leibnitz Lastenstraße,SPO.06.197.65540.6001.1,PM2.5,Particulate matter < 2.5 µm (aerosol),P1Y,Annual mean / 1 calendar year,2019,13.594,ug/m3,98.64,1,Background,Suburban,15.5406,46.7783,272,,,,E1a/validated data AQ e-Reporting,02/11/2024 21:46,https://eeadmz1batchservice02.blob.core.windows.net/airquality-p-e1a/AT/SPO.06.197.65540.6001.1.parquet,hour
Austria,NET.10,Umweltbundesamt,AT0ENK1,Enzenkirchen im Sauwald,SPO.10.ENK1.64509.6001.2,PM2.5,Particulate matter < 2.5 µm (aerosol),P1Y,Annual mean / 1 calendar year,2019,9.633,ug/m3,91.96,1,Background,Rural,13.6709,48.3916,525,,,,E1a/validated data AQ e-Reporting,02/11/2024 21:46,https://eeadmz1batchservice02.blob.core.windows.net/airquality-p-e1a/AT/SPO.10.ENK1.64509.6001.2.parquet,hour
Austria,NET.10,Umweltbundesamt,AT0ZOE2,Zöbelboden im Reichraminger Hintergebirge - Wildwiese,SPO.10.ZOE2.65499.6001.2,PM2.5,Particulate matter < 2.5 µm (aerosol),P1Y,Annual mean / 1 calendar year,2019,5.171,ug/m3,96.44,1,Background,Rural,14.4409,47.8383,892,,,,E1a/validated data AQ e-Reporting,02/11/2024 21:46,https://eeadmz1batchservice02.blob.core.windows.net/airquality-p-e1a/AT/SPO.10.ZOE2.65499.6001.2.parquet,hour
France,NET-FR068A,ATMO OCCITANIE,FR08714,Perpignan Les Carmes,SPO-FR08714_6001,PM2.5,Particulate matter < 2.5 µm (aerosol),P1Y,Annual mean / 1 calendar year,2019,9.649,ug/m3,94.75,1,Background,Urban,2.9005,42.6955,48,Perpignan                                                                       ,FR043C2                                           ,130264,E1a/validated data AQ e-Reporting,02/11/2024 21:46,https://eeadmz1batchservice02.blob.core.windows.net/airquality-p-e1a/FR/SPO-FR08714_6001.parquet,hour
France,NET-FR069A,ATMO NORMANDIE,FR21001,Caen Chemin-Vert,SPO-FR21001_6001,PM2.5,Particulate matter < 2.5 µm (aerosol),P1Y,Annual mean / 1 calendar year,2019,9.101,ug/m3,96.46,1,Background,Urban,-0.3911,49.1922,56,Caen                                                                            ,FR023C2                                           ,144972,E1a/validated data AQ e-Reporting,02/11/2024 21:46,https://eeadmz1batchservice02.blob.core.windows.net/airquality-p-e1a/FR/SPO-FR21001_6001.parquet,hour
France,NET-FR068A,ATMO OCCITANIE,FR12021,Toulouse Mazades,SPO-FR12021_6001,PM2.5,Particulate matter < 2.5 µm (aerosol),P1Y,Annual mean / 1 calendar year,2019,8.627,ug/m3,97.6,1,Background,Urban,1.4385,43.6236,144,Toulouse                                                                        ,FR004C2                                           ,613199,E1a/validated data AQ e-Reporting,02/11/2024 21:46,https://eeadmz1batchservice02.blob.core.windows.net/airquality-p-e1a/FR/SPO-FR12021_6001.parquet,hour
France,NET-FR069A,ATMO NORMANDIE,FR05090,Le Havre ville-haute,SPO-FR05090_6001,PM2.5,Particulate matter < 2.5 µm (aerosol),P1Y,Annual mean / 1 calendar year,2019,10.868,ug/m3,96.04,1,Background,Urban,0.1006,49.5147,92,Le Havre                                                                        ,FR012C1                                           ,195042,E1a/validated data AQ e-Reporting,02/11/2024 21:46,https://eeadmz1batchservice02.blob.core.windows.net/airquality-p-e1a/FR/SPO-FR05090_6001.parquet,hour
France,NET-FR068A,ATMO OCCITANIE,FR12054,TRAFIC_TOULOUSE,SPO-FR12054_6001,PM2.5,Particulate matter < 2.5 µm (aerosol),P1Y,Annual mean / 1 calendar year,2019,10.558,ug/m3,97.28,1,Traffic,Urban,1.4682,43.6439,149,Toulouse                                                                        ,FR004C2                                           ,613199,E1a/validated data AQ e-Reporting,02/11/2024 21:46,https://eeadmz1batchservice02.blob.core.windows.net/airquality-p-e1a/FR/SPO-FR12054_6001.parquet,hour
France,NET-FR069A,ATMO NORMANDIE,FR05089,Le Havre Lafaurie-montant,SPO-FR05089_6001,PM2.5,Particulate matter < 2.5 µm (aerosol),P1Y,Annual mean / 1 calendar year,2019,9.962,ug/m3,95.29,1,Traffic,Urban,0.1109,49.5002,60,Le Havre                                                                        ,FR012C1                                           ,195042,E1a/validated data AQ e-Reporting,02/11/2024 21:46,https://eeadmz1batchservice02.blob.core.windows.net/airquality-p-e1a/FR/SPO-FR05089_6001.parquet,hour
Italy,NET.IT282A,RETE REGIONALE QUALIT? ARIA AMBIENTE,IT1773A,Genga -Parco Gola della Rossa,SPO.IT1773A_6001_BETA_2006-10-01_00:00:00,PM2.5,Particulate matter < 2.5 µm (aerosol),P1Y,Annual mean / 1 calendar year,2019,9.991,ug/m3,87.33,1,Background,Rural,12.9522,43.4681,550,,,,E1a/validated data AQ e-Reporting,02/11/2024 21:46,https://eeadmz1batchservice02.blob.core.windows.net/airquality-p-e1a/IT/SPO.IT1773A_6001_BETA_2006-10-01_00_00_00.parquet,hour
Netherlands,NET-NL001A,DCMR Luchtkwaliteit Meetnet Rijnmond,NL00496,Hoek v. Holland-Berghaven,SPO-NL00496_06001_100,PM2.5,Particulate matter < 2.5 µm (aerosol),P1Y,Annual mean / 1 calendar year,2019,11.233,ug/m3,96.53,1,Industrial,Suburban,4.1219,51.9778,6,Greater Rotterdam                                                               ,NL003C2                                           ,1232747,E1a/validated data AQ e-Reporting,02/11/2024 21:46,https://eeadmz1batchservice02.blob.core.windows.net/airquality-p-e1a/NL/SPO-NL00496_06001_100.parquet,hour
Netherlands,NET-NL001A,DCMR Luchtkwaliteit Meetnet Rijnmond,NL00495,Maassluis-Kwartellaan,SPO-NL00495_06001_100,PM2.5,Particulate matter < 2.5 µm (aerosol),P1Y,Annual mean / 1 calendar year,2019,12.229,ug/m3,95.17,1,Background,Urban,4.228,51.932,4,,,,E1a/validated data AQ e-Reporting,02/11/2024 21:46,https://eeadmz1batchservice02.blob.core.windows.net/airquality-p-e1a/NL/SPO-NL00495_06001_100.parquet,hour
Netherlands,NET-NL010A,Landelijk Meetnet Luchtkwaliteit,NL00131,Vredepeel-Vredeweg,SPO-NL00131_06001_102,PM2.5,Particulate matter < 2.5 µm (aerosol),P1Y,Annual mean / 1 calendar year,2019,12.083,ug/m3,99.49,1,Background,Rural,5.8531,51.5405,30,,,,E1a/validated data AQ e-Reporting,02/11/2024 21:46,https://eeadmz1batchservice02.blob.core.windows.net/airquality-p-e1a/NL/SPO-NL00131_06001_102.parquet,hour
Netherlands,NET-NL010A,Landelijk Meetnet Luchtkwaliteit,NL00644,Cabauw-Wielsekade,SPO-NL00644_06001_101,PM2.5,Particulate matter < 2.5 µm (aerosol),P1Y,Annual mean / 1 calendar year,2019,9.532,ug/m3,97.51,1,Background,Rural,4.9233,51.9745,0,,,,E1a/validated data AQ e-Reporting,02/11/2024 21:46,https://eeadmz1batchservice02.blob.core.windows.net/airquality-p-e1a/NL/SPO-NL00644_06001_101.parquet,hour
Lithuania,NET-LT001A,"""National Air Monitoring Network""",LT00021,"""N.Akmene""",SPO-LT00021_06001_100,PM2.5,Particulate matter < 2.5 µm (aerosol),P1Y,Annual mean / 1 calendar year,2019,9.817,ug/m3,95.59,1,Background,Urban,22.8708,56.3194,75,,,,E1a/validated data AQ e-Reporting,02/11/2024 21:46,https://eeadmz1batchservice02.blob.core.windows.net/airquality-p-e1a/LT/SPO-LT00021_06001_100.parquet,hour
Poland,NET_PL_LU_AQ,Lubuska Sieć Monitoringu Powietrza,PL0752A,"Nowa Sól, ul. T. Kościuszki",SPO_PL0752A_6001_001,PM2.5,Particulate matter < 2.5 µm (aerosol),P1Y,Annual mean / 1 calendar year,2019,20.576,ug/m3,93.2,1,Background,Urban,15.7082,51.8087,67,,,,E1a/validated data AQ e-Reporting,02/11/2024 21:46,https://eeadmz1batchservice02.blob.core.windows.net/airquality-p-e1a/PL/SPO_PL0752A_6001_001.parquet,hour
Netherlands,NET-NL052A,Meetnet Profincie Noord Holland,NL00572,Velsen-Staalstraat,SPO-NL00572_06001_100,PM2.5,Particulate matter < 2.5 µm (aerosol),P1Y,Annual mean / 1 calendar year,2019,11.167,ug/m3,94.92,1,Industrial,Urban,4.6288,52.4744,4,Greater Haarlem                                                                 ,NL501C2                                           ,280309,E1a/validated data AQ e-Reporting,02/11/2024 21:46,https://eeadmz1batchservice02.blob.core.windows.net/airquality-p-e1a/NL/SPO-NL00572_06001_100.parquet,hour
Netherlands,NET-NL049A,Amsterdamse Meetnet Luchtkwaliteit,NL00007,Amsterdam-Einsteinweg,SPO-NL00007_06001_100,PM2.5,Particulate matter < 2.5 µm (aerosol),P1Y,Annual mean / 1 calendar year,2019,10.089,ug/m3,95.59,1,Traffic,Urban,4.8452,52.3813,2,Greater Amsterdam                                                               ,NL002C2                                           ,996915,E1a/validated data AQ e-Reporting,02/11/2024 21:46,https://eeadmz1batchservice02.blob.core.windows.net/airquality-p-e1a/NL/SPO-NL00007_06001_100.parquet,hour
Netherlands,NET-NL010A,Landelijk Meetnet Luchtkwaliteit,NL00643,Utrecht-Griftpark,SPO-NL00643_06001_101,PM2.5,Particulate matter < 2.5 µm (aerosol),P1Y,Annual mean / 1 calendar year,2019,10.464,ug/m3,99.16,1,Background,Urban,5.1282,52.1013,5,Greater Utrecht                                                                 ,NL004C2                                           ,450062,E1a/validated data AQ e-Reporting,02/11/2024 21:46,https://eeadmz1batchservice02.blob.core.windows.net/airquality-p-e1a/NL/SPO-NL00643_06001_101.parquet,hour
Norway,NET_NO001A,NO001A,NO0093A,Hjortnes,SPO_NO0093A_6001_1040,PM2.5,Particulate matter < 2.5 µm (aerosol),P1Y,Annual mean / 1 calendar year,2019,8.906,ug/m3,99.26,1,Traffic,Urban,10.704,59.9113,8,Oslo                                                                            ,NO001C1                                           ,623966,E1a/validated data AQ e-Reporting,02/11/2024 21:46,https://eeadmz1batchservice02.blob.core.windows.net/airquality-p-e1a/NO/SPO_NO0093A_6001_1040.parquet,hour
Netherlands,NET-NL049A,Amsterdamse Meetnet Luchtkwaliteit,NL00017,Amsterdam-Stadhouderskade,SPO-NL00017_06001_100,PM2.5,Particulate matter < 2.5 µm (aerosol),P1Y,Annual mean / 1 calendar year,2019,10.142,ug/m3,98.71,1,Traffic,Urban,4.8997,52.358,5,Greater Amsterdam                                                               ,NL002C2                                           ,996915,E1a/validated data AQ e-Reporting,02/11/2024 21:46,https://eeadmz1batchservice02.blob.core.windows.net/airquality-p-e1a/NL/SPO-NL00017_06001_100.parquet,hour
Netherlands,NET-NL052A,Meetnet Profincie Noord Holland,NL00553,Wijk aan Zee-Burgemeester Rothestraat,SPO-NL00553_06001_100,PM2.5,Particulate matter < 2.5 µm (aerosol),P1Y,Annual mean / 1 calendar year,2019,11.729,ug/m3,99.19,1,Industrial,Urban,4.602,52.494,11,Greater Heemskerk                                                               ,NL528C1                                           ,93868,E1a/validated data AQ e-Reporting,02/11/2024 21:46,https://eeadmz1batchservice02.blob.core.windows.net/airquality-p-e1a/NL/SPO-NL00553_06001_100.parquet,hour
Italy,NET.IT282A,RETE REGIONALE QUALIT? ARIA AMBIENTE,IT1827A,Ancona Cittadella,SPO.IT1827A_6001_BETA_2006-10-01_00:00:00,PM2.5,Particulate matter < 2.5 µm (aerosol),P1Y,Annual mean / 1 calendar year,2019,13.973,ug/m3,87.08,1,Background,Urban,13.5086,43.6117,100,Ancona                                                                          ,IT017C1                                           ,99077,E1a/validated data AQ e-Reporting,02/11/2024 21:46,https://eeadmz1batchservice02.blob.core.windows.net/airquality-p-e1a/IT/SPO.IT1827A_6001_BETA_2006-10-01_00_00_00.parquet,hour
Lithuania,NET-LT001A,"""National Air Monitoring Network""",LT00041,"""Kaunas - Petrasiunai""",SPO-LT00041_06001_100,PM2.5,Particulate matter < 2.5 µm (aerosol),P1Y,Annual mean / 1 calendar year,2019,11.368,ug/m3,97.28,1,Traffic,Urban,23.9862,54.8951,31,Kaunas                                                                          ,LT002C1                                           ,289364,E1a/validated data AQ e-Reporting,02/11/2024 21:46,https://eeadmz1batchservice02.blob.core.windows.net/airquality-p-e1a/LT/SPO-LT00041_06001_100.parquet,hour
Lithuania,NET-LT001A,"""National Air Monitoring Network""",LT00003,"""Vilnius - Zirmunai""",SPO-LT00003_06001_100,PM2.5,Particulate matter < 2.5 µm (aerosol),P1Y,Annual mean / 1 calendar year,2019,15.918,ug/m3,93.84,1,Traffic,Urban,25.2894,54.7153,119,Vilnius                                                                         ,LT001C1                                           ,561836,E1a/validated data AQ e-Reporting,02/11/2024 21:46,https://eeadmz1batchservice02.blob.core.windows.net/airquality-p-e1a/LT/SPO-LT00003_06001_100.parquet,hour
Netherlands,NET-NL001A,DCMR Luchtkwaliteit Meetnet Rijnmond,NL00489,Ridderkerk-Hogeweg,SPO-NL00489_06001_100,PM2.5,Particulate matter < 2.5 µm (aerosol),P1Y,Annual mean / 1 calendar year,2019,11.987,ug/m3,97.36,1,Traffic,Urban,4.5801,51.8694,2,Greater Rotterdam                                                               ,NL003C2                                           ,1232747,E1a/validated data AQ e-Reporting,02/11/2024 21:46,https://eeadmz1batchservice02.blob.core.windows.net/airquality-p-e1a/NL/SPO-NL00489_06001_100.parquet,hour
Netherlands,NET-NL001A,DCMR Luchtkwaliteit Meetnet Rijnmond,NL00491,Rotterdam-Oost Sidelinge A13,SPO-NL00491_06001_100,PM2.5,Particulate matter < 2.5 µm (aerosol),P1Y,Annual mean / 1 calendar year,2019,13.201,ug/m3,95.66,1,Traffic,Urban,4.4307,51.9385,-1,Greater Rotterdam                                                               ,NL003C2                                           ,1232747,E1a/validated data AQ e-Reporting,02/11/2024 21:46,https://eeadmz1batchservice02.blob.core.windows.net/airquality-p-e1a/NL/SPO-NL00491_06001_100.parquet,hour
Netherlands,NET-NL010A,Landelijk Meetnet Luchtkwaliteit,NL00404,Den Haag-Rebecquestraat,SPO-NL00404_06001_102,PM2.5,Particulate matter < 2.5 µm (aerosol),P1Y,Annual mean / 1 calendar year,2019,8.626,ug/m3,96.4,1,Background,Urban,4.2892,52.0771,4,Greater 's-Gravenhage                                                           ,NL001C2                                           ,769888,E1a/validated data AQ e-Reporting,02/11/2024 21:46,https://eeadmz1batchservice02.blob.core.windows.net/airquality-p-e1a/NL/SPO-NL00404_06001_102.parquet,hour
Poland,NET_PL_LB_AQ,Lubelska Sieć Monitoringu Powietrza,PL0710A,"Nałęczów, al. Małachowskiego",SPO_PL0710A_6001_001,PM2.5,Particulate matter < 2.5 µm (aerosol),P1Y,Annual mean / 1 calendar year,2019,15.845,ug/m3,93.5,1,Background,Suburban,22.2102,51.2849,178,,,,E1a/validated data AQ e-Reporting,02/11/2024 21:46,https://eeadmz1batchservice02.blob.core.windows.net/airquality-p-e1a/PL/SPO_PL0710A_6001_001.parquet,hour
Poland,NET_PL_LU_AQ,Lubuska Sieć Monitoringu Powietrza,PL0212A,Wschowa ul. Kazimierza Wielkiego,SPO_PL0212A_6001_002,PM2.5,Particulate matter < 2.5 µm (aerosol),P1Y,Annual mean / 1 calendar year,2019,21.985,ug/m3,94.33,1,Background,Urban,16.3175,51.7997,90,,,,E1a/validated data AQ e-Reporting,02/11/2024 21:46,https://eeadmz1batchservice02.blob.core.windows.net/airquality-p-e1a/PL/SPO_PL0212A_6001_002.parquet,hour
Poland,NET_PL_MZ_AQ,Mazowiecka Sieć Monitoringu Powietrza,PL0134A,"Piastów, ul. Pułaskiego",SPO_PL0134A_6001_002,PM2.5,Particulate matter < 2.5 µm (aerosol),P1Y,Annual mean / 1 calendar year,2019,19.669,ug/m3,97.4,1,Background,Suburban,20.8375,52.1917,99,,,,E1a/validated data AQ e-Reporting,02/11/2024 21:46,https://eeadmz1batchservice02.blob.core.windows.net/airquality-p-e1a/PL/SPO_PL0134A_6001_002.parquet,hour
Poland,NET_PL_OP_AQ,Opolska Sieć Monitoringu Powietrza,PL0218A,"Kędzierzyn-Koźle, ul. Śmiałego",SPO_PL0218A_6001_001,PM2.5,Particulate matter < 2.5 µm (aerosol),P1Y,Annual mean / 1 calendar year,2019,20.098,ug/m3,93.26,1,Background,Urban,18.2366,50.3496,181,,,,E1a/validated data AQ e-Reporting,02/11/2024 21:46,https://eeadmz1batchservice02.blob.core.windows.net/airquality-p-e1a/PL/SPO_PL0218A_6001_001.parquet,hour
Poland,NET_PL_PK_AQ,Podkarpacka Sieć Monitoringu Powietrza,PL0677A,"Mielec, ul. Biernackiego",SPO_PL0677A_6001_001,PM2.5,Particulate matter < 2.5 µm (aerosol),P1Y,Annual mean / 1 calendar year,2019,21.101,ug/m3,95.63,1,Background,Urban,21.4409,50.2991,167,,,,E1a/validated data AQ e-Reporting,02/11/2024 21:46,https://eeadmz1batchservice02.blob.core.windows.net/airquality-p-e1a/PL/SPO_PL0677A_6001_001.parquet,hour
Poland,NET_PL_WM_AQ,Warmińsko-Mazurska Sieć Monitoringu Powietrza,PL0750A,WIOŚ Gołdap-Uzdrowisko,SPO_PL0750A_6001_001,PM2.5,Particulate matter < 2.5 µm (aerosol),P1Y,Annual mean / 1 calendar year,2019,10.678,ug/m3,93.07,1,Background,Urban,22.3322,54.3282,170,,,,E1a/validated data AQ e-Reporting,02/11/2024 21:46,https://eeadmz1batchservice02.blob.core.windows.net/airquality-p-e1a/PL/SPO_PL0750A_6001_001.parquet,hour
Poland,NET_PL_PK_AQ,Podkarpacka Sieć Monitoringu Powietrza,PL0621A,"Dębica, ul.Grottgera",SPO_PL0621A_6001_001,PM2.5,Particulate matter < 2.5 µm (aerosol),P1Y,Annual mean / 1 calendar year,2019,26.4,ug/m3,96.45,1,Background,Urban,21.4163,50.0548,195,,,,E1a/validated data AQ e-Reporting,02/11/2024 21:46,https://eeadmz1batchservice02.blob.core.windows.net/airquality-p-e1a/PL/SPO_PL0621A_6001_001.parquet,hour
Belgium,NET-Flanders,Flanders,BELAL03,40AL03 - BEVEREN,SPO-BELAL03_06001_100,PM2.5,Particulate matter < 2.5 µm (aerosol),P1Y,Annual mean / 1 calendar year,2019,13.757,ug/m3,99.76,1,Industrial,Rural,4.2015,51.254,4,,,,E1a/validated data AQ e-Reporting,02/11/2024 21:46,https://eeadmz1batchservice02.blob.core.windows.net/airquality-p-e1a/BE/SPO-BELAL03_06001_100.parquet,hour
Belgium,NET-Flanders,Flanders,BELAL05,40AL05 - BEVEREN,SPO-BELAL05_06001_100,PM2.5,Particulate matter < 2.5 µm (aerosol),P1Y,Annual mean / 1 calendar year,2019,13.03,ug/m3,99.09,1,Industrial,Rural,4.2789,51.2631,8,,,,E1a/validated data AQ e-Reporting,02/11/2024 21:46,https://eeadmz1batchservice02.blob.core.windows.net/airquality-p-e1a/BE/SPO-BELAL05_06001_100.parquet,hour
Belgium,NET-Flanders,Flanders,BELOB02,40OB02 - WIELSBEKE            ,SPO-BELOB02_06001_100,PM2.5,Particulate matter < 2.5 µm (aerosol),P1Y,Annual mean / 1 calendar year,2019,15.008,ug/m3,99.76,1,Industrial,Rural,3.3762,50.915,14,,,,E1a/validated data AQ e-Reporting,02/11/2024 21:46,https://eeadmz1batchservice02.blob.core.windows.net/airquality-p-e1a/BE/SPO-BELOB02_06001_100.parquet,hour
Belgium,NET-Flanders,Flanders,BELSA04,40SA04 - Hoevenen,SPO-BELSA04_06001_100,PM2.5,Particulate matter < 2.5 µm (aerosol),P1Y,Annual mean / 1 calendar year,2019,13.289,ug/m3,96.87,1,Industrial,Rural,4.4039,51.3139,6,,,,E1a/validated data AQ e-Reporting,02/11/2024 21:46,https://eeadmz1batchservice02.blob.core.windows.net/airquality-p-e1a/BE/SPO-BELSA04_06001_100.parquet,hour
Belgium,NET-Flanders,Flanders,BELSZ02,40SZ02 - STEENOKKERZ,SPO-BELSZ02_06001_100,PM2.5,Particulate matter < 2.5 µm (aerosol),P1Y,Annual mean / 1 calendar year,2019,11.753,ug/m3,98.46,1,Industrial,Rural,4.5122,50.913,15,,,,E1a/validated data AQ e-Reporting,02/11/2024 21:46,https://eeadmz1batchservice02.blob.core.windows.net/airquality-p-e1a/BE/SPO-BELSZ02_06001_100.parquet,hour
Belgium,NET-Flanders,Flanders,BELHH08,42HH08 - HOUTHALEN-HELCHTEREN,SPO-BELHH08_06001_100,PM2.5,Particulate matter < 2.5 µm (aerosol),P1Y,Annual mean / 1 calendar year,2019,11.838,ug/m3,82.32,1,Traffic,Rural,5.3764,51.0316,0,,,,E1a/validated data AQ e-Reporting,02/11/2024 21:46,https://eeadmz1batchservice02.blob.core.windows.net/airquality-p-e1a/BE/SPO-BELHH08_06001_100.parquet,hour
Belgium,NET-Flanders,Flanders,BELRL01,40RL01 - ROESELARE,SPO-BELRL01_06001_100,PM2.5,Particulate matter < 2.5 µm (aerosol),P1Y,Annual mean / 1 calendar year,2019,12.909,ug/m3,96.94,1,Background,Urban,3.1212,50.9532,20,,,,E1a/validated data AQ e-Reporting,02/11/2024 21:46,https://eeadmz1batchservice02.blob.core.windows.net/airquality-p-e1a/BE/SPO-BELRL01_06001_100.parquet,hour
Belgium,NET-Flanders,Flanders,BELOB01,40OB01 - OOSTROZEBEK,SPO-BELOB01_06001_100,PM2.5,Particulate matter < 2.5 µm (aerosol),P1Y,Annual mean / 1 calendar year,2019,15.208,ug/m3,99.04,1,Industrial,Rural,3.3074,50.9172,44,,,,E1a/validated data AQ e-Reporting,02/11/2024 21:46,https://eeadmz1batchservice02.blob.core.windows.net/airquality-p-e1a/BE/SPO-BELOB01_06001_100.parquet,hour
Belgium,NET-Flanders,Flanders,BELMN01,40MN01 - MENEN,SPO-BELMN01_06001_100,PM2.5,Particulate matter < 2.5 µm (aerosol),P1Y,Annual mean / 1 calendar year,2019,13.95,ug/m3,99.86,1,Industrial,Rural,3.1096,50.7935,10,,,,E1a/validated data AQ e-Reporting,02/11/2024 21:46,https://eeadmz1batchservice02.blob.core.windows.net/airquality-p-e1a/BE/SPO-BELMN01_06001_100.parquet,hour
Belgium,NET-Flanders,Flanders,BETN029,44N029 - HOUTEM,SPO-BETN029_06001_100,PM2.5,Particulate matter < 2.5 µm (aerosol),P1Y,Annual mean / 1 calendar year,2019,11.374,ug/m3,99.54,1,Background,Rural,2.5823,51.0163,2,,,,E1a/validated data AQ e-Reporting,02/11/2024 21:46,https://eeadmz1batchservice02.blob.core.windows.net/airquality-p-e1a/BE/SPO-BETN029_06001_100.parquet,hour
Belgium,NET-Flanders,Flanders,BETN052,44N052 - ZWEVEGEM,SPO-BETN052_06001_100,PM2.5,Particulate matter < 2.5 µm (aerosol),P1Y,Annual mean / 1 calendar year,2019,13.359,ug/m3,99.52,1,Background,Suburban,3.3225,50.8149,27,,,,E1a/validated data AQ e-Reporting,02/11/2024 21:46,https://eeadmz1batchservice02.blob.core.windows.net/airquality-p-e1a/BE/SPO-BETN052_06001_100.parquet,hour
Belgium,NET-Flanders,Flanders,BETN012,44N012 - MOERKERKE,SPO-BETN012_06001_100,PM2.5,Particulate matter < 2.5 µm (aerosol),P1Y,Annual mean / 1 calendar year,2019,12.236,ug/m3,99.65,1,Background,Rural,3.3625,51.2546,3,,,,E1a/validated data AQ e-Reporting,02/11/2024 21:46,https://eeadmz1batchservice02.blob.core.windows.net/airquality-p-e1a/BE/SPO-BETN012_06001_100.parquet,hour
Belgium,NET-Flanders,Flanders,BETM705,44M705 - ROESELARE,SPO-BETM705_06001_100,PM2.5,Particulate matter < 2.5 µm (aerosol),P1Y,Annual mean / 1 calendar year,2019,13.817,ug/m3,99.76,1,Industrial,Suburban,3.1524,50.9454,19,,,,E1a/validated data AQ e-Reporting,02/11/2024 21:46,https://eeadmz1batchservice02.blob.core.windows.net/airquality-p-e1a/BE/SPO-BETM705_06001_100.parquet,hour
Belgium,NET-Flanders,Flanders,BETN016,42N016 - DESSEL,SPO-BETN016_06001_100,PM2.5,Particulate matter < 2.5 µm (aerosol),P1Y,Annual mean / 1 calendar year,2019,12.282,ug/m3,98.73,1,Background,Rural,5.164,51.2337,30,,,,E1a/validated data AQ e-Reporting,02/11/2024 21:46,https://eeadmz1batchservice02.blob.core.windows.net/airquality-p-e1a/BE/SPO-BETN016_06001_100.parquet,hour
Belgium,NET-Wallonia,Wallonia,BETR223,43R223 - JEMEPPE,SPO-BETR223_06001_100,PM2.5,Particulate matter < 2.5 µm (aerosol),P1Y,Annual mean / 1 calendar year,2019,10.074,ug/m3,99.67,1,Industrial,Suburban,5.5164,50.6207,50,Liège                                                                           ,BE005C1                                           ,383700,E1a/validated data AQ e-Reporting,02/11/2024 21:46,https://eeadmz1batchservice02.blob.core.windows.net/airquality-p-e1a/BE/SPO-BETR223_06001_100.parquet,hour
Belgium,NET-Wallonia,Wallonia,BETR512,45R512 - MARCHIENNE,SPO-BETR512_06001_100,PM2.5,Particulate matter < 2.5 µm (aerosol),P1Y,Annual mean / 1 calendar year,2019,11.277,ug/m3,98.98,1,Industrial,Suburban,4.3959,50.4078,107,Charleroi                                                                       ,BE004C1                                           ,203314,E1a/validated data AQ e-Reporting,02/11/2024 21:46,https://eeadmz1batchservice02.blob.core.windows.net/airquality-p-e1a/BE/SPO-BETR512_06001_100.parquet,hour
